id,code,site_number,fac_type,fac_use,faa_region,faa_dist,city,county,state,full_name,own_type,longitude,latitude,elevation,aero_cht,cbd_dist,cbd_dir,act_date,cert,fed_agree,cust_intl,c_ldg_rts,joint_use,mil_rts,cntl_twr,major
1,ADK,50009.*A,AIRPORT,PU,AAL,NONE,ADAK ISLAND,ALEUTIAN ISLANDS,AK,ADAK,MN,-176.640000,51.870000,18,W ALEUTIAN ISLS,0,W,,BS 05/1973,,N,N,N,Y,N,Y
2,AKK,50016.1*A,AIRPORT,PU,AAL,NONE,AKHIOK,KODIAK,AK,AKHIOK,PU,-154.180000,56.930000,44,KODIAK,1,SW,,,NGY,N,N,,Y,N,N
3,Z13,50017.*A,AIRPORT,PU,AAL,NONE,AKIACHAK,BETHEL,AK,AKIACHAK,PU,-161.420000,60.900000,25,MC GRATH,0,SE,,,N,N,N,N,Y,N,N
4,KKI,50017.1*C,SEAPLANE BASE,PU,AAL,NONE,AKIACHAK,BETHEL,AK,AKIACHAK,PU,-161.430000,60.900000,18,MC GRATH,0,S,,,,N,N,N,N,N,N
5,AKI,50020.*A,AIRPORT,PU,AAL,NONE,AKIAK,BETHEL,AK,AKIAK,PU,-161.220000,60.900000,22,MC GRATH,0,SW,,,N1,N,N,N,Y,N,N
6,KQA,50022.*C,SEAPLANE BASE,PU,AAL,NONE,AKUTAN,ALEUTIAN ISLANDS,AK,AKUTAN,PU,-165.780000,54.130000,0,DUTCH HARBOR,0,S,,,N,N,N,N,N,N,N
7,AUK,50024.1*A,AIRPORT,PU,AAL,NONE,ALAKANUK,WADE HAMPTON,AK,ALAKANUK,PU,-164.650000,62.680000,10,BETHEL,1,SW,,,N,N,N,N,Y,N,N
8,Z25,50027.51*A,AIRPORT,PU,AAL,NONE,ALEKNAGIK,BRISTOL BAY,AK,TRIPOD,PU,-158.550000,59.260000,225,KODIAK,2,SE,,,,N,N,N,N,N,N
9,Z33,50027.52*C,SEAPLANE BASE,PU,AAL,NONE,ALEKNAGIK,BRISTOL BAY,AK,ALEKNAGIK,PR,-158.620000,59.270000,7,KODIAK,0,NW,,,,N,N,N,N,N,N
10,5A8,50027.53*A,AIRPORT,PU,AAL,NONE,ALEKNAGIK,BRISTOL BAY,AK,ALEKNAGIK /NEW/,PU,-158.610000,59.280000,66,KODIAK,1,E,,,,,,,Y,N,N
11,Z35,50027.6*A,AIRPORT,PR,AAL,NONE,ALEKNAGIK,BRISTOL BAY,AK,ALEKNAGIK MISSION SCHOOL,PR,-158.590000,59.280000,150,KODIAK,1,NE,,,,N,N,N,N,N,N
12,6A8,50029.1*A,AIRPORT,PU,AAL,NONE,ALLAKAKET,YUKON-KOYUKUK,AK,NEW ALLAKAKET,PU,-152.620000,66.550000,504,FAIRBANKS,2,NNW,10/1999,,NGY,,,,,N,N
13,AFM,50029.61*A,AIRPORT,PU,AAL,NONE,AMBLER,NORTHWEST ARCTIC,AK,AMBLER,PU,-157.850000,67.100000,289,FAIRBANKS,1,N,,,NGY,N,N,,Y,N,N
14,AK80,50031.*A,AIRPORT,PR,AAL,NONE,AMERICAN CREEK,YUKON-KOYUKUK,AK,AMERICAN CREEK,PU,-151.170000,65.100000,500,FAIRBANKS,0,N,,,,N,N,N,N,N,N
15,AK81,50031.5*C,SEAPLANE BASE,PR,AAL,NONE,AMOOK BAY,KODIAK,AK,AMOOK BAY,PR,-153.810000,57.470000,0,KODIAK,0,N,,,,N,N,N,N,N,N
16,AKP,50032.*A,AIRPORT,PU,AAL,NONE,ANAKTUVUK PASS,YUKON-KOYUKUK,AK,ANAKTUVUK PASS,PU,-151.740000,68.130000,2107,POINT BARROW,0,SE,,,NGY,N,N,N,Y,N,N
17,CSR,50033.*A,AIRPORT,PR,AAL,NONE,ANCHORAGE,ANCHORAGE,AK,CAMPBELL AIRSTRIP,PU,-149.780000,61.150000,286,ANCHORAGE,4,SE,,,,N,N,N,,N,N
18,AK38,50033.01*H,HELIPORT,PR,AAL,NONE,ANCHORAGE,ANCHORAGE,AK,PROVIDENCE HOSPITAL,PR,-149.820000,61.190000,140,ANCHORAGE,3,SE,11/1986,,,,,,,N,N
19,2OK,50033.1*H,HELIPORT,PU,AAL,NONE,ANCHORAGE,ANCHORAGE,AK,ALASKA REGIONAL HOSPITAL,PU,-149.840000,61.210000,137,ANCHORAGE,0,E,03/1993,,NGY,,,,,N,N
20,AK82,50033.2*H,HELIPORT,PR,AAL,NONE,ANCHORAGE,ANCHORAGE,AK,CAMPBELL BLM,PU,-149.790000,61.150000,235,ANCHORAGE,4,SE,,,,N,N,N,Y,N,N
21,AK12,50033.4*A,AIRPORT,PR,AAL,NONE,ANCHORAGE,ANCHORAGE,AK,FLYING CROWN,PR,-149.860000,61.100000,47,ANCHORAGE,6,S,,,,,,,,N,N
22,A13,50033.5*A,AIRPORT,PU,AAL,NONE,ANCHORAGE,ANCHORAGE,AK,BOLD,PU,-148.980000,61.340000,900,ANCHORAGE,16,N,08/1990,,,,,,,N,N
23,AK37,50033.6*H,HELIPORT,PR,AAL,NONE,ANCHORAGE,ANCHORAGE,AK,POINT MACKENZIE,PU,-150.030000,61.240000,72,ANCHORAGE,0,N,03/1991,,,,,,,N,N
24,AK07,50033.8*A,AIRPORT,PR,AAL,NONE,ANCHORAGE,ANCHORAGE,AK,DOG FISH BAY,PR,-151.870000,59.240000,10,KODIAK,0,N,12/1991,,,,,,,N,N
25,ANC,50034.*A,AIRPORT,PU,AAL,NONE,ANCHORAGE,ANCHORAGE,AK,TED STEVENS ANCHORAGE INTL,PU,-149.990000,61.170000,144,ANCHORAGE,4,SW,,ES 03/1973,NGSY,N,Y,N,Y,Y,Y
26,MRI,50035.*A,AIRPORT,PU,AAL,NONE,ANCHORAGE,ANCHORAGE,AK,MERRILL FIELD,PU,-149.840000,61.210000,137,ANCHORAGE,0,E,,,NGSY,,,,,Y,N
27,EDF,50036.*A,AIRPORT,PR,AAL,NONE,ANCHORAGE,ANCHORAGE,AK,ELMENDORF AFB,MA,-149.790000,61.250000,213,ANCHORAGE,3,NE,,,,N,N,Y,Y,Y,N
28,AK91,50036.01*H,HELIPORT,PR,AAL,NONE,ANCHORAGE,ANCHORAGE,AK,ELMENDORF HOSPITAL,MA,-149.740000,61.230000,228,ANCHORAGE,3,E,,,,N,N,N,,N,N
29,5FI,50036.02*A,AIRPORT,PR,AAL,NONE,ANCHORAGE,ANCHORAGE,AK,FIRE ISLAND,PU,-150.160000,61.160000,55,ANCHORAGE,7,SW,,,,N,N,N,N,N,N
30,AK92,50036.03*A,AIRPORT,PR,AAL,NONE,ANCHORAGE,ANCHORAGE,AK,RABBIT CREEK,PR,-149.820000,61.080000,35,ANCHORAGE,7,S,,,,N,N,N,N,N,N
31,Z38,50036.1*A,AIRPORT,PR,AAL,NONE,ANCHORAGE,ANCHORAGE,AK,SKY HARBOR,PR,-149.820000,61.110000,340,ANCHORAGE,7,SE,,,,N,N,N,N,N,N
32,FRN,50036.5*H,HELIPORT,PR,AAL,NONE,FORT RICHARDSON(ANCHORAGE),ANCHORAGE,AK,BRYANT AHP,MR,-149.650000,61.260000,378,ANCHORAGE,0,E,,,,N,N,N,Y,N,N
33,Z41,50036.99*A,AIRPORT,PU,AAL,NONE,ANCHORAGE,ANCHORAGE,AK,LAKE HOOD STRIP,PU,-149.960000,61.180000,73,ANCHORAGE,3,SW,,,,N,N,,Y,N,N
34,LHD,50037.*C,SEAPLANE BASE,PU,AAL,NONE,ANCHORAGE,ANCHORAGE,AK,LAKE HOOD,PU,-149.970000,61.180000,71,ANCHORAGE,3,SW,,,NGY,N,N,N,Y,Y,N
35,AK00,50037.3*A,AIRPORT,PR,AAL,NONE,ANCHOR POINT,KENAI PENINSULA,AK,ANCHOR RIVER AIRPARK,PR,-151.860000,59.790000,120,KODIAK,1,NW,02/2000,,,,,,,N,N
36,AGN,50037.6*C,SEAPLANE BASE,PU,AAL,NONE,ANGOON,SITKA,AK,ANGOON,PU,-134.580000,57.500000,0,JUNEAU,1,SE,,,NGY,N,N,N,Y,N,N
37,ANI,50038.*A,AIRPORT,PU,AAL,NONE,ANIAK,KUSKOKWIM,AK,ANIAK,PU,-159.540000,61.580000,88,MC GRATH,0,S,,,RGPY,,,,,N,N
38,ANN,50039.*A,AIRPORT,PR,AAL,NONE,ANNETTE,KETCHIKAN,AK,ANNETTE ISLAND,PR,-131.570000,55.040000,119,KETCHIKAN,0,N,,,,N,N,N,Y,N,N
39,Z43,50039.01*C,SEAPLANE BASE,PU,AAL,NONE,ANNETTE,KETCHIKAN,AK,TAMGAS HARBOR,PU,-131.550000,55.060000,0,KETCHIKAN,2,NE,,,1,N,N,N,N,N,N
40,ANV,50039.1*A,AIRPORT,PU,AAL,NONE,ANVIK,KUSKOKWIM,AK,ANVIK,PU,-160.180000,62.640000,309,MC GRATH,1,SE,,,,,,,Y,N,N
41,K40,50039.11*C,SEAPLANE BASE,PU,AAL,NONE,ANVIK,KUSKOKWIM,AK,ANVIK,PU,-160.200000,62.650000,52,MC GRATH,0,NW,,,,N,N,N,N,N,N
42,ARC,50039.8*A,AIRPORT,PU,AAL,NONE,ARCTIC VILLAGE,UPPER YUKON,AK,ARCTIC VILLAGE,PU,-145.570000,68.110000,2086,POINT BARROW,1,SW,,,NGY,,,,,N,N
43,AKA,50040.5*A,AIRPORT,PU,AAL,NONE,ATKA,UNORGANIZED,AK,ATKA,PU,-174.200000,52.220000,56,ANCHORAGE,2,N,,,NGY,,,,Y,N,N
44,4A2,50044.*A,AIRPORT,PU,AAL,NONE,ATMAUTLUAK,BETHEL,AK,ATMAUTLUAK,PU,-162.270000,60.860000,17,BETHEL,0,SW,,,N,N,N,,Y,N,N
45,ATK,50044.5*A,AIRPORT,PU,AAL,NONE,ATQASUK,NORTH SLOPE,AK,ATQASUK EDWARD BURNELL SR MEMORIAL,PU,-157.430000,70.460000,96,CAPE LISBURNE,1,S,,,NGY,N,N,N,Y,N,N
46,ATU,50046.*A,AIRPORT,PR,AAL,NONE,ATTU,ALEUTIAN ISLANDS,AK,CASCO COVE CGS,PU,173.180000,52.820000,40,W ALEUTIAN ISLS,0,N,,,,N,N,N,,N,N
47,BNF,50053.*C,SEAPLANE BASE,PU,AAL,NONE,BARANOF,WRANGELL-PETERSBURG,AK,WARM SPRING BAY,PU,-134.830000,57.080000,0,JUNEAU,0,SE,,,1,N,N,N,N,N,N
48,BRW,50054.3*A,AIRPORT,PU,AAL,NONE,BARROW,NORTH SLOPE,AK,WILEY POST-WILL ROGERS MEM,PU,-156.760000,71.280000,44,POINT BARROW,0,SE,,BS 05/1973,NGSY,N,N,N,Y,N,Y
49,BQV,50056.*C,SEAPLANE BASE,PU,AAL,NONE,BARTLETT COVE,SKAGWAY-YAKUTAT,AK,BARTLETT COVE,PU,-135.880000,58.450000,0,JUNEAU,0,NW,,,,N,N,N,N,N,N
50,Z47,50056.5*A,AIRPORT,PU,AAL,NONE,BASIN CREEK,NOME,AK,BASIN CREEK,PR,-165.290000,64.670000,140,NOME,0,W,,,,N,N,N,Y,N,N
51,AK02,50057.*A,AIRPORT,PR,AAL,NONE,BEAR CREEK,KOBUK,AK,BEAR CREEK 1,PU,-161.060000,65.530000,575,NOME,0,NE,,,,N,N,N,N,N,N
52,Z48,50057.2*A,AIRPORT,PU,AAL,NONE,BEAR CREEK,KUSKOKWIM,AK,BEAR CREEK 3,PU,-156.140000,63.570000,740,MC GRATH,3,W,,,,N,N,N,N,N,N
53,Z52,50057.4*A,AIRPORT,PU,AAL,NONE,BEAR LAKE,ALEUTIAN ISLANDS,AK,JOHNSONS LANDING,PU,-160.260000,56.030000,130,KODIAK,1,S,,,,N,N,N,N,N,N
54,WBQ,50058.*A,AIRPORT,PU,AAL,NONE,BEAVER,UPPER YUKON,AK,BEAVER,PU,-147.400000,66.360000,365,FAIRBANKS,0,N,,,NGS,N,N,N,,N,N
55,KBE,50059.9*C,SEAPLANE BASE,PR,AAL,NONE,BELL ISLAND,KETCHIKAN,AK,BELL ISLAND HOT SPRINGS,PR,-131.570000,55.920000,0,KETCHIKAN,0,SW,,,,N,N,N,N,N,N
56,BLG,50059.95*A,AIRPORT,PR,AAL,NONE,BELUGA,KENAI-COOK INLET,AK,BELUGA,PR,-151.040000,61.170000,130,ANCHORAGE,0,,,,,N,N,N,N,N,N
57,Z58,50060.1*C,SEAPLANE BASE,PU,AAL,NONE,BETHEL,BETHEL,AK,HANGAR LAKE,PU,-161.720000,60.790000,17,MC GRATH,1,NE,,,,N,N,N,Y,N,N
58,Z59,50060.2*C,SEAPLANE BASE,PU,AAL,NONE,BETHEL,BETHEL,AK,BETHEL,PU,-161.740000,60.780000,15,MC GRATH,0,S,,,,N,N,N,N,N,N
59,BET,50061.1*A,AIRPORT,PU,AAL,NONE,BETHEL,BETHEL,AK,BETHEL,PU,-161.830000,60.770000,123,MC GRATH,3,SW,,BS 05/1973,,,,,,Y,Y
60,BTT,50062.*A,AIRPORT,PU,AAL,NONE,BETTLES,YUKON-KOYUKUK,AK,BETTLES,PU,-151.520000,66.910000,643,FAIRBANKS,0,N,,,,,,,,N,N
61,2A4,50062.01*C,SEAPLANE BASE,PU,AAL,NONE,BETTLES,YUKON-KOYUKUK,AK,VOR LAKE WATERLANE,PU,-151.490000,66.880000,631,FAIRBANKS,2,SE,10/1999,,,,,,,N,N
62,BGQ,50068.6*A,AIRPORT,PU,AAL,NONE,BIG LAKE,UNORGANIZED,AK,BIG LAKE,PU,-149.810000,61.530000,150,ANCHORAGE,1,SE,,,,,,,,N,N
63,37AK,50068.61*A,AIRPORT,PR,AAL,NONE,BIG MOUNTAIN,KODIAK,AK,BIG MOUNTAIN,MA,-155.250000,59.360000,663,KODIAK,3,SW,,,,,,,,N,N
64,AK95,50068.62*A,AIRPORT,PR,AAL,NONE,BIG LAKE,MATA-SUS BOROUGH,AK,TWIN LAKE,PR,-149.780000,61.570000,200,ANCHORAGE,3,N,08/1997,,,,,,,N,N
65,Z91,50068.78*A,AIRPORT,PU,AAL,NONE,BIRCH CREEK,FAIRBANKS NORTH STAR,AK,BIRCH CREEK,PU,-145.820000,66.270000,450,FAIRBANKS,1,N,,,,,,,,N,N
66,BCV,50069.*A,AIRPORT,PU,AAL,NONE,BIRCHWOOD,ANCHORAGE,AK,BIRCHWOOD,PU,-149.500000,61.410000,96,ANCHORAGE,2,NW,,,NGY,,,,,N,N
67,5BK,50070.*A,AIRPORT,PU,AAL,NONE,BLACK RAPIDS,FAIRBANKS NORTH STAR,AK,BLACK RAPIDS,PU,-145.860000,63.530000,2125,ANCHORAGE,0,N,,,,,,,,N,N
68,AK97,50071.72*A,AIRPORT,PR,AAL,NONE,BOSWELL BAY,CORDOVA-MCCARTHY,AK,BOSWELL BAY,PU,-146.140000,60.420000,230,ANCHORAGE,1,E,,,,N,N,N,Y,N,N
69,BYA,50072.*A,AIRPORT,PU,AAL,NONE,BOUNDARY,UPPER YUKON,AK,BOUNDARY,PU,-141.110000,64.070000,2940,DAWSON,0,W,,,,,,,Y,N,N
70,KTS,50072.5*A,AIRPORT,PU,AAL,NONE,BREVIG MISSION,NOME,AK,BREVIG MISSION,PU,-166.460000,65.330000,25,NOME,0,E,,,NGSY,,,,,N,N
71,AK98,50073.*A,AIRPORT,PR,AAL,NONE,BUCK CREEK,NOME,AK,BUCK CREEK,PU,-167.480000,65.630000,560,NOME,1,N,,,,N,N,N,N,N,N
72,BVK,50073.1*A,AIRPORT,PU,AAL,NONE,BUCKLAND,UNORGANIZED,AK,BUCKLAND,PU,-161.150000,65.980000,24,NOME,1,SW,,,,,,,Y,N,N
73,AK99,50074.3*A,AIRPORT,PR,AAL,NONE,CAMDEN BAY,UPPER YUKON,AK,BROWN LOW POINT,PU,-144.830000,69.980000,8,POINT BARROW,0,N,,,,N,N,N,N,N,N
74,CDL,50075.1*A,AIRPORT,PU,AAL,NONE,CANDLE,UNORGANIZED,AK,CANDLE 2,PR,-161.920000,65.900000,15,NOME,0,NE,,,,,,,,N,N
75,TTW,50078.*A,AIRPORT,PU,AAL,NONE,CANTWELL,MATA-SUS BOROUGH,AK,CANTWELL,PR,-148.950000,63.390000,2190,ANCHORAGE,0,N,,,,,,,,N,N
76,C36,50078.01*H,HELIPORT,PU,AAL,NONE,CANTWELL,MATA-SUS BOROUGH,AK,IGLOO,PR,-149.360000,63.180000,2000,ANCHORAGE,23,S,09/1983,,,,,Y,,N,N
77,Z70,50078.12*A,AIRPORT,PR,AAL,NONE,CANTWELL,YUKON-KOYUKUK,AK,GOLDEN NORTH AIRFIELD,PR,-148.850000,63.370000,2250,ANCHORAGE,3,E,,,,,,,,N,N
78,Z53,50080.5*A,AIRPORT,PU,AAL,NONE,CAPE BEAUFORT,BARROW,AK,CAPE SABINE,PU,-163.850000,69.020000,50,CAPE LISBURNE,50,NE,,,,,,,,N,N
79,CDE,50080.6*H,HELIPORT,PR,AAL,NONE,CAPE DECISION,WRANGELL-PETERSBURG,AK,CAPE DECISION C. G.,PU,-134.130000,56.000000,34,JUNEAU,0,N,,,,N,N,N,N,N,N
80,LUR,50082.*A,AIRPORT,PR,AAL,NONE,CAPE LISBURNE,BARROW,AK,CAPE LISBURNE LRRS,MA,-166.110000,68.870000,12,CAPE LISBURNE,0,N,,LU 08/1976,,N,N,N,,N,N
81,EHM,50084.*A,AIRPORT,PR,AAL,NONE,CAPE NEWENHAM,BETHEL,AK,CAPE NEWENHAM LRRS,MA,-162.060000,58.640000,541,GNC 6,1,SE,,LU 08/1976,,N,N,N,Y,N,N
82,Z71,50086.*C,SEAPLANE BASE,PU,AAL,NONE,CAPE POLE,PRINCE OF WALES,AK,CAPE POLE,PR,-133.790000,55.960000,0,KETCHIKAN,0,W,,,,,,,,N,N
83,CZF,50088.*A,AIRPORT,PR,AAL,NONE,CAPE ROMANZOF,WADE HAMPTON,AK,CAPE ROMANZOF LRRS,MA,-166.030000,61.780000,457,BETHEL,6,SE,,LU 08/1976,,N,N,N,,N,N
84,26AK,50088.3*A,AIRPORT,PR,AAL,NONE,CAPE SARICHEF,ALEUTIAN ISLANDS,AK,CAPE SARICHEF,PU,-164.910000,54.580000,291,DUTCH HARBOR,0,N,,,,N,N,N,Y,N,N
85,0AK2,50088.5*A,AIRPORT,PR,AAL,NONE,CAPE SIMPSON,BARROW,AK,CAPE SIMPSON,PU,-154.750000,71.050000,11,POINT BARROW,0,N,,,,N,N,,,N,N
86,CSP,50088.53*H,HELIPORT,PR,AAL,NONE,CAPE SPENCER,SKAGWAY-YAKUTAT,AK,CAPE SPENCER C.G.,PU,-136.630000,58.190000,84,JUNEAU,0,N,,,,N,N,N,N,N,N
87,CEM,50090.*A,AIRPORT,PU,AAL,NONE,CENTRAL,UPPER YUKON,AK,CENTRAL,PU,-144.780000,65.570000,932,DAWSON,0,N,,,,,,,Y,N,N
88,CIK,50092.*A,AIRPORT,PU,AAL,NONE,CHALKYITSIK,UPPER YUKON,AK,CHALKYITSIK,PU,-143.730000,66.640000,560,DAWSON,0,SW,,,,,,,,N,N
89,5CD,50093.95*A,AIRPORT,PU,AAL,NONE,CHANDALAR CAMP,UPPER YUKON,AK,CHANDALAR SHELF,PU,-149.570000,68.060000,3222,FAIRBANKS,0,W,,,,,,,Y,N,N
90,WCR,50094.3*A,AIRPORT,PU,AAL,NONE,CHANDALAR LAKE,UPPER YUKON,AK,CHANDALAR LAKE,PU,-148.480000,67.500000,1920,FAIRBANKS,0,N,,,,,,,Y,N,N
91,CYM,50095.*C,SEAPLANE BASE,PU,AAL,NONE,CHATHAM,SITKA,AK,CHATHAM,PR,-134.940000,57.510000,0,JUNEAU,0,NE,,,N,N,N,N,N,N,N
92,CFK,50095.12*A,AIRPORT,PU,AAL,NONE,CHEFORNAK,BETHEL,AK,CHEFORNAK,PU,-164.280000,60.140000,40,BETHEL,0,E,,,,,,,Y,N,N
93,AK13,50095.4*A,AIRPORT,PR,AAL,NONE,CHENA HOT SPRINGS,FAIRBANKS,AK,CHENA HOT SPRINGS,PR,-146.040000,65.050000,1195,FAIRBANKS,0,E,,,,N,N,N,N,N,N
94,C05,50095.7*A,AIRPORT,PU,AAL,NONE,CHENEGA,SEWARD,AK,CHENEGA BAY,PU,-147.990000,60.070000,72,SEWARD,1,NE,09/1994,,NGY,,,,,N,N
95,KCN,50096.*C,SEAPLANE BASE,PU,AAL,NONE,CHERNOFSKI HARBOR,ALEUTIAN ISLANDS,AK,CHERNOFSKI HARBOR,PU,-167.550000,53.390000,0,DUTCH HARBOR,0,N,,,,N,N,N,N,N,N
96,VAK,50096.22*A,AIRPORT,PU,AAL,NONE,CHEVAK,WADE HAMPTON,AK,CHEVAK,PU,-165.580000,61.530000,75,BETHEL,1,N,,,N,N,N,N,Y,N,N
97,CKX,50097.*A,AIRPORT,PU,AAL,NONE,CHICKEN,UPPER YUKON,AK,CHICKEN,PU,-141.950000,64.070000,1640,DAWSON,0,SW,,,NGY,N,N,N,N,N,N
98,Z78,50097.5*C,SEAPLANE BASE,PU,AAL,NONE,CHIGNIK,ALEUTIAN ISLANDS,AK,CHIGNIK BAY,PU,-158.400000,56.290000,0,KODIAK,0,N,,,,N,N,N,N,N,N
99,KCL,50097.51*A,AIRPORT,PU,AAL,NONE,CHIGNIK FLATS,ALEUTIAN ISLANDS,AK,CHIGNIK LAGOON,PU,-158.530000,56.310000,50,KODIAK,0,SW,,,N,N,N,N,Y,N,N
100,KCG,50097.52*A,AIRPORT,PU,AAL,NONE,CHIGNIK,ALEUTIAN ISLANDS,AK,CHIGNIK FISHERIES,PR,-158.590000,56.310000,25,KODIAK,6,NW,,,,N,N,N,N,N,N
101,AJC,50097.53*A,AIRPORT,PU,AAL,NONE,CHIGNIK,ALEUTIAN ISLANDS,AK,CHIGNIK,PU,-158.370000,56.310000,18,KODIAK,2,NE,,,NGY,N,N,N,Y,N,N
102,A79,50097.54*A,AIRPORT,PU,AAL,NONE,CHIGNIK LAKE,ALEUTIAN ISLANDS,AK,CHIGNIK LAKE,PU,-158.770000,56.250000,50,COLD BAY,0,SW,,,NGY,N,N,N,Y,N,N
103,CZN,50099.*A,AIRPORT,PU,AAL,NONE,CHISANA,FAIRBANKS,AK,CHISANA,PU,-142.040000,62.070000,3318,ANCHORAGE,0,N,,,N,N,N,N,Y,N,N
104,CZO,50101.*A,AIRPORT,PU,AAL,NONE,CHISTOCHINA,VALDEZ-CHITNA-WHITIE,AK,CHISTOCHINA,PU,-144.660000,62.560000,1850,ANCHORAGE,0,SW,,,,N,N,N,N,N,N
105,CXC,50103.*A,AIRPORT,PU,AAL,NONE,CHITINA,VALDEZ-CHITNA-WHITIE,AK,CHITINA,PU,-144.420000,61.580000,556,ANCHORAGE,4,N,,,NS1,N,N,N,Y,N,N
106,9A3,50104.37*A,AIRPORT,PU,AAL,NONE,CHUATHBALUK,KUSKOKWIM,AK,CHUATHBALUK,PU,-159.230000,61.580000,300,MC GRATH,1,NE,01/1988,,,,,,Y,N,N
107,AK24,50104.45*A,AIRPORT,PR,AAL,NONE,CHUGIAK,ANCHORAGE,AK,HILLTOP,PR,-149.440000,61.410000,375,ANCHORAGE,3,N,,,,N,N,N,N,N,N
108,CRC,50106.5*A,AIRPORT,PU,AAL,NONE,CIRCLE,UPPER YUKON,AK,CIRCLE CITY /NEW/,PU,-144.070000,65.830000,610,DAWSON,0,N,02/1988,,NGY,,,,,N,N
109,CHP,50108.*A,AIRPORT,PU,AAL,NONE,CIRCLE HOT SPRINGS,UPPER YUKON,AK,CIRCLE HOT SPRINGS,PU,-144.610000,65.480000,956,DAWSON,0,NE,,,NS1,N,N,N,,N,N
110,CLP,50108.3*A,AIRPORT,PU,AAL,NONE,CLARKS POINT,BRISTOL BAY,AK,CLARKS POINT,PU,-158.540000,58.840000,10,KODIAK,0,N,,,N,N,N,N,Y,N,N
111,Z84,50109.01*A,AIRPORT,PU,AAL,NONE,CLEAR,YUKON-KOYUKUK,AK,CLEAR,PU,-149.120000,64.300000,552,FAIRBANKS,3,SE,,,,N,N,N,N,N,N
112,CLF,50109.11*A,AIRPORT,PU,AAL,NONE,CLEAR,YUKON-KOYUKUK,AK,CLEAR SKY LODGE,PR,-149.180000,64.250000,650,FAIRBANKS,4,S,,,,N,N,N,N,N,N
113,Z86,50110.*A,AIRPORT,PU,AAL,NONE,CLEARWATER,SOUTHEAST FAIRBANKS,AK,CLEARWATER,PU,-147.170000,63.020000,2900,ANCHORAGE,0,S,,,,N,N,N,N,N,N
114,KCC,50112.6*C,SEAPLANE BASE,PU,AAL,NONE,COFFMAN COVE,PRINCE OF WALES,AK,COFFMAN COVE,PU,-132.840000,56.000000,0,JUNEAU,0,W,,,,N,N,N,,N,N
115,CDB,50114.*A,AIRPORT,PU,AAL,NONE,COLD BAY,ALEUTIAN ISLANDS,AK,COLD BAY,PU,-162.720000,55.200000,98,COLD BAY,0,N,,BS 05/1973,NGPY,N,Y,N,Y,N,N
116,Z87,50114.01*C,SEAPLANE BASE,PU,AAL,NONE,COLD BAY,ALEUTIAN ISLANDS,AK,BLINN LAKE,PU,-162.750000,55.250000,50,COLD BAY,3,N,,,,N,N,N,N,N,N
117,CXF,50114.35*A,AIRPORT,PU,AAL,NONE,COLDFOOT,UPPER YUKON,AK,COLDFOOT,PU,-150.200000,67.250000,1050,FAIRBANKS,0,N,,,,N,N,N,Y,N,N
118,KCR,50116.*A,AIRPORT,PR,AAL,NONE,COLORADO CREEK,KUSKOKWIM,AK,COLORADO CREEK,PR,-155.980000,63.560000,860,MC GRATH,0,S,,,,N,N,N,N,N,N
119,JLA,50121.5*A,AIRPORT,PU,AAL,NONE,COOPER LANDING,KENAI-COOK INLET,AK,QUARTZ CREEK,PU,-149.710000,60.480000,450,ANCHORAGE,3,W,,,,N,N,N,Y,N,N
120,Z93,50122.1*A,AIRPORT,PU,AAL,NONE,COPPER CENTER,VALDEZ-CHITNA-WHITIE,AK,COPPER CENTER 2,PU,-145.290000,61.940000,1150,ANCHORAGE,1,S,,,,N,N,N,Y,N,N
121,CDV,50124.*A,AIRPORT,PU,AAL,NONE,CORDOVA,CORDOVA-MCCARTHY,AK,MERLE K (MUDHOLE) SMITH,PU,-145.470000,60.490000,42,ANCHORAGE,11,SE,,BS 05/1973,NGPSY,N,N,N,Y,N,Y
122,CKU,50125.*A,AIRPORT,PU,AAL,NONE,CORDOVA,CORDOVA-MCCARTHY,AK,CORDOVA MUNI,PU,-145.720000,60.540000,12,ANCHORAGE,1,E,,,N,N,N,N,Y,N,N
123,K29,50127.*A,AIRPORT,PU,AAL,NONE,COUNCIL,NOME,AK,COUNCIL,PU,-163.700000,64.890000,85,NOME,1,N,11/1990,,,,,,Y,N,N
124,CGA,50130.*C,SEAPLANE BASE,PU,AAL,NONE,CRAIG,PRINCE OF WALES,AK,CRAIG,PU,-133.140000,55.470000,0,KETCHIKAN,0,N,,,Y1,N,N,N,Y,N,N
125,1AK0,50130.1*H,HELIPORT,PR,AAL,NONE,CRAIG,PRINCE OF WALES,AK,CRAIG CG,PU,-133.140000,55.470000,20,KETCHIKAN,0,E,,,,N,N,N,N,N,N
126,1AK1,50130.4*A,AIRPORT,PR,AAL,NONE,CREVICE CREEK,YUKON-KOYUKUK,AK,CREVICE CREEK,PR,-152.010000,67.370000,840,FAIRBANKS,0,NW,,,,N,N,N,N,N,N
127,CJX,50132.1*A,AIRPORT,PU,AAL,NONE,CROOKED CREEK,KUSKOKWIM,AK,CROOKED CREEK,PU,-158.130000,61.860000,128,MC GRATH,2,S,,,NGY,,,,Y,N,N
128,1AK2,50132.4*A,AIRPORT,PR,AAL,NONE,CROSSWIND LAKE,MATA-SUS BOROUGH,AK,CROSSWIND LAKE,PR,-146.010000,62.400000,2125,ANCHORAGE,0,N,,,,N,N,N,N,N,N
129,DCK,50135.1*A,AIRPORT,PU,AAL,NONE,DAHL CREEK,KOBUK,AK,DAHL CREEK,PU,-156.900000,66.940000,260,FAIRBANKS,10,SE,,,GY,N,N,N,Y,N,N
130,SCC,50140.7*A,AIRPORT,PU,AAL,NONE,DEADHORSE,NORTH SLOPE,AK,DEADHORSE,PU,-148.460000,70.190000,61,POINT BARROW,0,SE,,BS 05/1973,NGY,N,N,N,Y,N,Y
131,35AK,50140.71*H,HELIPORT,PR,AAL,NONE,DEADHORSE,BARROW,AK,SEAL ISLAND,PR,-148.690000,70.490000,30,POINT BARROW,16,NW,,,,,,,,N,N
132,AK15,50140.72*A,AIRPORT,PR,AAL,NONE,DEADHORSE,NORTH SLOPE,AK,ALPINE AIRSTRIP,PR,-150.940000,70.340000,18,POINT BARROW,53,W,02/2000,,,,,,,N,N
133,22AK,50140.721*A,AIRPORT,PR,AAL,NONE,DEADHORSE,BARROW,AK,HELMERICKS,PR,-150.360000,70.410000,5,POINT BARROW,0,N,,,,,,,,N,N
134,DEE,50145.1*A,AIRPORT,PU,AAL,NONE,DEERING,KOBUK,AK,DEERING /NEW/,PU,-162.760000,66.060000,15,NOME,2,SW,,,NGY,N,N,N,Y,N,N
135,BIG,50146.*A,AIRPORT,PU,AAL,NONE,DELTA JUNCTION FT GREELY,FAIRBANKS,AK,ALLEN AAF,MR,-145.720000,63.990000,1277,ANCHORAGE,3,S,,LU 03/1978,N,N,N,Y,Y,N,N
136,11AK,50146.012*A,AIRPORT,PR,AAL,NONE,DELTA JUNCTION,SOUTHEAST FAIRBANKS,AK,DELTA AIRMOTIVE,PR,-145.500000,63.990000,1190,ANCHORAGE,6,E,,,,,,,,N,N
137,D66,50146.02*A,AIRPORT,PU,AAL,NONE,DELTA JUNCTION,FAIRBANKS NORTH STAR,AK,DELTA JUNCTION,PU,-145.710000,64.050000,1150,FAIRBANKS,0,N,11/1990,,,,,,,N,N
138,29AK,50146.03*A,AIRPORT,PR,AAL,NONE,DELTA JUNCTION,ANCHORAGE,AK,REMINGTON FIELD,PR,-145.410000,64.040000,1250,FAIRBANKS,10,E,,,,,,,,N,N
139,45AK,50146.04*A,AIRPORT,PR,AAL,NONE,DELTA JUNCTION,FAIRBANKS,AK,CHEROKEE,PR,-145.470000,63.960000,1300,ANCHORAGE,10,SE,04/1988,,,,,,,N,N
140,AK09,50146.05*A,AIRPORT,PR,AAL,NONE,DELTA JUNCTION,FAIRBANKS NORTH STAR,AK,WINGSONG ESTATES,PR,-145.500000,64.040000,1100,FAIRBANKS,7,N,12/1991,,,,,,,N,N
141,9AK4,50146.06*A,AIRPORT,PR,AAL,NONE,DELTA JUNCTION,FAIRBANKS NORTH STAR,AK,ARCTIC ANGEL,PR,-145.830000,64.130000,1009,DAWSON,8,NW,12/1992,,,,,,,N,N
142,0Z2,50147.3*A,AIRPORT,PU,AAL,NONE,DENALI,MATA-SUS BOROUGH,AK,ROAD COMMISSION NR 1,PU,-147.530000,63.100000,2525,ANCHORAGE,3,S,,,,N,N,N,N,N,N
143,DLG,50153.*A,AIRPORT,PU,AAL,NONE,DILLINGHAM,BRISTOL BAY,AK,DILLINGHAM,PU,-158.500000,59.040000,86,KODIAK,2,W,,AS 05/1973,NGSY,N,N,N,Y,N,Y
144,AK21,50153.01*A,AIRPORT,PR,AAL,NONE,DILLINGHAM,BRISTOL BAY,AK,NUSHAGAK,PR,-157.770000,59.130000,40,KODIAK,22,N,02/2000,,,,,,,N,N
145,0Z3,50154.*C,SEAPLANE BASE,PU,AAL,NONE,DILLINGHAM,BRISTOL BAY,AK,SHANNONS POND,PU,-158.570000,59.050000,80,KODIAK,3,W,,,,N,N,N,N,N,N
146,DM2,50156.5*H,HELIPORT,PU,AAL,NONE,DIOMEDE,ALEUTIAN ISLANDS,AK,DIOMEDE,PU,-168.950000,65.750000,20,NOME,0,N,02/2000,,,,,,,N,N
147,EAA,50175.*A,AIRPORT,PU,AAL,NONE,EAGLE,UPPER YUKON,AK,EAGLE,PU,-141.150000,64.770000,880,DAWSON,2,E,,,NGY,N,Y,N,Y,N,N
148,1AK7,50176.02*A,AIRPORT,PR,AAL,NONE,EAGLE RIVER,ANCHORAGE,AK,HARDEE FIELD,PR,-149.310000,61.240000,660,ANCHORAGE,9,N,,,,N,N,N,N,N,N
149,EEK,50177.*A,AIRPORT,PU,AAL,NONE,EEK,BETHEL,AK,EEK,PU,-162.000000,60.210000,40,BETHEL,1,E,,,N,N,N,N,Y,N,N
150,AK96,50178.01*A,AIRPORT,PR,AAL,NONE,EGEGIK,DILLINGHAM,AK,BARTLETTS,PR,-157.350000,58.210000,50,KODIAK,2,N,11/1990,,,,,,,N,N
151,EII,50178.1*A,AIRPORT,PU,AAL,NONE,EGEGIK,BRISTOL BAY,AK,EGEGIK,PU,-157.380000,58.180000,84,KODIAK,2,NW,09/1994,,NGY,,,,,N,N
152,KKU,50181.7*A,AIRPORT,PR,AAL,NONE,EKUK,BRISTOL BAY,AK,EKUK,PR,-158.550000,58.810000,30,KODIAK,0,S,,,N,N,N,N,N,N,N
153,KEK,50182.*A,AIRPORT,PU,AAL,NONE,EKWOK,BRISTOL BAY,AK,EKWOK,PU,-157.470000,59.350000,130,KODIAK,0,S,,,NGY,N,N,N,Y,N,N
154,ERO,50195.7*H,HELIPORT,PR,AAL,NONE,ELDRED ROCK,SKAGWAY-YAKUTAT,AK,ELDRED ROCK CG,PU,-135.230000,58.970000,33,JUNEAU,0,N,,,,N,N,N,N,N,N
155,ELV,50196.3*C,SEAPLANE BASE,PU,AAL,NONE,ELFIN COVE,SKAGWAY-YAKUTAT,AK,ELFIN COVE,PU,-136.340000,58.190000,0,JUNEAU,0,SE,,,N1,N,N,N,Y,N,N
156,ELI,50197.*A,AIRPORT,PU,AAL,NONE,ELIM,NOME,AK,ELIM,PU,-162.270000,64.610000,200,NOME,3,SW,,,NGY,N,N,N,Y,N,N
157,MOS,50197.01*A,AIRPORT,PR,AAL,NONE,ELIM,NOME,AK,MOSES POINT,PR,-162.050000,64.690000,14,NOME,0,S,,,N,N,N,N,Y,N,N
158,1Z9,50197.3*C,SEAPLANE BASE,PU,AAL,NONE,ELLAMAR,VALDEZ-CHITNA-WHITIE,AK,ELLAMAR,PU,-146.700000,60.890000,0,ANCHORAGE,0,NE,,,,N,N,N,N,N,N
159,ENM,50198.61*A,AIRPORT,PU,AAL,NONE,EMMONAK,WADE HAMPTON,AK,EMMONAK,PU,-164.490000,62.780000,14,BETHEL,0,E,,,NGY,,,,,N,N
160,KEB,50199.*A,AIRPORT,PU,AAL,NONE,ENGLISH BAY,KENAI-COOK INLET,AK,ENGLISH BAY,PU,-151.920000,59.350000,27,KODIAK,0,SW,,,N,N,N,N,Y,N,N
161,2Z1,50199.6*C,SEAPLANE BASE,PU,AAL,NONE,ENTRANCE ISLAND,WRANGELL-PETERSBURG,AK,ENTRANCE ISLAND,PU,-133.430000,57.410000,0,JUNEAU,0,S,,,,N,N,N,N,N,N
162,AZK,50200.*A,AIRPORT,PU,AAL,NONE,EUREKA,VALDEZ-CHITNA-WHITIE,AK,SKELTON,PR,-147.160000,61.930000,3289,ANCHORAGE,0,S,,,,N,N,N,N,N,N
163,2Z2,50202.*A,AIRPORT,PU,AAL,NONE,EUREKA CREEK,YUKON-KOYUKUK,AK,EUREKA CREEK,PU,-150.220000,65.170000,700,FAIRBANKS,0,S,,,,N,N,N,N,N,N
164,2Z3,50203.*A,AIRPORT,PU,AAL,NONE,EVA CREEK,FAIRBANKS,AK,EVA CREEK,PU,-148.860000,64.040000,2817,FAIRBANKS,7,E,,,,N,N,N,N,N,N
165,EXI,50208.*C,SEAPLANE BASE,PU,AAL,NONE,EXCURSION INLET,SKAGWAY-YAKUTAT,AK,EXCURSION INLET,PU,-135.440000,58.420000,0,JUNEAU,0,NE,,,NY1,N,N,N,Y,N,N
166,2Z5,50215.*C,SEAPLANE BASE,PU,AAL,NONE,FAIRBANKS,FAIRBANKS,AK,CHENA RIVER,PU,-147.840000,64.830000,440,FAIRBANKS,3,W,,,,N,N,N,N,N,N
167,AK28,50215.01*A,AIRPORT,PR,AAL,NONE,FAIRBANKS,FAIRBANKS NORTH STAR,AK,CHENA MARINA,PR,-147.910000,64.810000,427,FAIRBANKS,5,SW,12/1991,,,,,,,N,N
168,1AK9,50215.02*H,HELIPORT,PR,AAL,NONE,FAIRBANKS,FAIRBANKS NORTH STAR,AK,TUNDRA COPTER,PR,-147.860000,64.810000,434,FAIRBANKS,3,SW,,,,,,,,N,N
169,AK22,50215.03*A,AIRPORT,PR,AAL,NONE,FAIRBANKS,FAIRBANKS NORTH STAR,AK,LAKLOEY AIR PARK,PR,-147.520000,64.820000,475,FAIRBANKS,6,E,02/2000,,,,,,,N,N
170,MTF,50215.1*A,AIRPORT,PR,AAL,NONE,FAIRBANKS,FAIRBANKS,AK,METRO FLD,PR,-147.760000,64.800000,432,FAIRBANKS,2,S,,,,N,N,N,N,N,N
171,31AK,50215.2*A,AIRPORT,PR,AAL,NONE,FAIRBANKS,FAIRBANKS NORTH STAR,AK,DALRYMPLE'S,PR,-147.420000,64.830000,450,FAIRBANKS,8,NE,06/1983,,,,,,,N,N
172,FBK,50216.*A,AIRPORT,PR,AAL,NONE,FAIRBANKS/FT WAINWRIGHT,FAIRBANKS,AK,WAINWRIGHT AAF,MR,-147.610000,64.830000,454,FAIRBANKS,2,E,,AU 06/1974,,N,N,N,Y,Y,N
173,2AK1,50216.3*A,AIRPORT,PR,AAL,NONE,FAIRBANKS /FT WAINWRIGHT/,FAIRBANKS,AK,BLAIR LAKE,MA,-147.360000,64.360000,910,FAIRBANKS,29,SE,,,,N,N,N,Y,N,N
174,2AK2,50216.31*A,AIRPORT,PR,AAL,NONE,FAIRBANKS /FT WAINWRIGHT/,FAIRBANKS,AK,CLEAR CREEK,MA,-147.560000,64.450000,660,FAIRBANKS,23,SE,,,,N,N,,,N,N
175,EIL,50217.*A,AIRPORT,PR,AAL,NONE,FAIRBANKS,FAIRBANKS,AK,EIELSON AFB,MA,-147.100000,64.660000,548,FAIRBANKS,17,SE,,EU 05/1973,,N,N,N,Y,Y,N
176,FAI,50219.*A,AIRPORT,PU,AAL,NONE,FAIRBANKS,FAIRBANKS,AK,FAIRBANKS INTL,PU,-147.850000,64.810000,434,FAIRBANKS,3,SW,,CS 03/1973,NGSY,N,Y,N,Y,Y,Y
177,2Z6,50221.3*C,SEAPLANE BASE,PU,AAL,NONE,FALSE ISLAND,SITKA,AK,FALSE ISLAND,PU,-135.210000,57.530000,0,JUNEAU,0,E,,,,N,N,N,N,N,N
178,KFP,50221.5*A,AIRPORT,PU,AAL,NONE,FALSE PASS,ALEUTIAN ISLANDS,AK,FALSE PASS,PU,-163.410000,54.840000,20,COLD BAY,0,S,,,N,N,N,N,Y,N,N
179,FWL,50222.*A,AIRPORT,PU,AAL,NONE,FAREWELL,KUSKOKWIM,AK,FAREWELL,PU,-153.890000,62.500000,1535,MC GRATH,0,S,,,,N,N,N,N,N,N
180,TNW,50223.*A,AIRPORT,PU,AAL,NONE,FAREWELL LAKE,KUSKOKWIM,AK,TIN CREEK,PU,-153.610000,62.530000,1151,MC GRATH,1,S,,,,N,N,N,N,N,N
181,FKK,50223.1*C,SEAPLANE BASE,PU,AAL,NONE,FAREWELL LAKE,KUSKOKWIM,AK,FAREWELL LAKE,PU,-153.620000,62.540000,1052,MC GRATH,1,NW,,,,N,N,N,N,N,N
182,3Z1,50225.7*A,AIRPORT,PU,AAL,NONE,FEATHER RIVER,NOME,AK,FEATHER RIVER,PU,-166.130000,64.830000,325,NOME,1,W,,,,N,N,N,N,N,N
183,2AK3,50228.4*H,HELIPORT,PR,AAL,NONE,FIVE FINGER,JUNEAU,AK,FIVE FINGER CG,PU,-133.630000,57.260000,48,JUNEAU,0,N,,,,N,N,N,N,N,N
184,FVM,50228.8*A,AIRPORT,PR,AAL,NONE,FIVE MILE,UPPER YUKON,AK,FIVE MILE,PU,-149.840000,65.920000,510,FAIRBANKS,0,SE,,,,N,N,N,N,N,N
185,FLT,50230.*A,AIRPORT,PU,AAL,NONE,FLAT,KUSKOKWIM,AK,FLAT,PU,-157.980000,62.450000,309,MC GRATH,0,E,,,N,N,N,N,Y,N,N
186,FYU,50235.*A,AIRPORT,PU,AAL,NONE,FORT YUKON,UPPER YUKON,AK,FORT YUKON,PU,-145.250000,66.570000,433,FAIRBANKS,0,N,,,NGSY,N,Y,N,Y,N,N
187,FNR,50250.*C,SEAPLANE BASE,PU,AAL,NONE,FUNTER BAY,ANGOON,AK,FUNTER BAY,PU,-134.890000,58.250000,0,JUNEAU,0,N,,,N1,N,N,N,Y,N,N
188,GBH,50257.5*A,AIRPORT,PU,AAL,NONE,GALBRAITH LAKE,NOME,AK,GALBRAITH LAKE,PU,-149.490000,68.470000,2670,POINT BARROW,2,N,,LU 12/1974,,,,N,Y,N,N
189,GAL,50258.*A,AIRPORT,PU,AAL,NONE,GALENA,YUKON-KOYUKUK,AK,EDWARD G. PITKA SR,PU,-156.930000,64.730000,152,FAIRBANKS,0,NW,,,NGPY,N,N,N,Y,N,N
190,GAM,50260.*A,AIRPORT,PU,AAL,NONE,GAMBELL,NOME,AK,GAMBELL,PU,-171.730000,63.760000,27,BETHEL,0,S,,,NGSY,N,Y,N,Y,N,N
191,AQY,50270.1*A,AIRPORT,PU,AAL,NONE,GIRDWOOD,ANCHORAGE,AK,GIRDWOOD,PU,-149.120000,60.960000,150,ANCHORAGE,3,NE,,,NGY,N,N,N,Y,N,N
192,KGZ,50272.*A,AIRPORT,PU,AAL,NONE,GLACIER CREEK,CORDOVA-MCCARTHY,AK,GLACIER CREEK,PU,-142.380000,61.450000,2380,ANCHORAGE,0,N,,,,N,N,N,N,N,N
193,3Z5,50272.18*A,AIRPORT,PU,AAL,NONE,GLENNALLEN,VALDEZ-CHITNA-WHITIE,AK,BRENWICKS,PR,-145.420000,62.060000,1150,ANCHORAGE,3,S,,,,N,N,,,N,N
194,3Z8,50274.2*C,SEAPLANE BASE,PU,AAL,NONE,GOLDEN HORN LODGE,BRISTOL BAY,AK,GOLDEN HORN LODGE,PR,-158.870000,59.740000,91,KODIAK,1,NW,,,,N,N,N,N,N,N
195,GLV,50275.*A,AIRPORT,PU,AAL,NONE,GOLOVIN,NOME,AK,GOLOVIN,PU,-163.030000,64.540000,25,NOME,0,N,,,N,N,N,N,N,N,N
196,N93,50275.01*A,AIRPORT,PU,AAL,NONE,GOLOVIN,NOME,AK,NEW GOLOVIN,PU,-163.000000,64.550000,69,NOME,0,N,,,,,,,Y,N,N
197,GNU,50277.*A,AIRPORT,PU,AAL,NONE,GOODNEWS,BETHEL,AK,GOODNEWS,PU,-161.580000,59.110000,15,KODIAK,0,SE,,,NGY,N,N,N,Y,N,N
198,Z40,50278.6*A,AIRPORT,PU,AAL,NONE,GOOSE BAY,ANCHORAGE,AK,GOOSE BAY,PU,-149.840000,61.390000,78,ANCHORAGE,0,E,,,NGY,N,N,,Y,N,N
199,GSZ,50280.2*A,AIRPORT,PR,AAL,NONE,GRANITE MOUNTAIN,NOME,AK,GRANITE MOUNTAIN AS,PU,-161.270000,65.400000,1455,NOME,0,E,,,,,,,,N,N
200,KGX,50280.69*A,AIRPORT,PU,AAL,NONE,GRAYLING,KUSKOKWIM,AK,GRAYLING,PU,-160.060000,62.890000,99,MC GRATH,1,S,,,NGY,N,N,N,Y,N,N
201,GKN,50281.*A,AIRPORT,PU,AAL,NONE,GULKANA,VALDEZ-CHITNA-WHITIE,AK,GULKANA,PU,-145.450000,62.150000,1579,ANCHORAGE,5,NE,,,NGPY,N,N,N,Y,N,N
202,A88,50282.6*A,AIRPORT,PU,AAL,NONE,GUNSIGHT MOUNTAIN LODGE,MATANUSKA SUSITNA,AK,GUNSIGHT MOUNTAIN,PR,-147.320000,61.890000,2950,ANCHORAGE,0,NW,,,,N,N,N,N,N,N
203,GST,50284.*A,AIRPORT,PU,AAL,NONE,GUSTAVUS,SKAGWAY-YAKUTAT,AK,GUSTAVUS,PU,-135.700000,58.420000,36,JUNEAU,0,NE,,AS 05/1974,NGPY,N,N,N,Y,N,N
204,HNS,50296.*A,AIRPORT,PU,AAL,NONE,HAINES,HAINES,AK,HAINES,PU,-135.520000,59.240000,16,JUNEAU,3,W,,,NGSY,N,Y,N,Y,N,N
205,3Z9,50296.1*C,SEAPLANE BASE,PU,AAL,NONE,HAINES,HAINES,AK,HAINES,PU,-135.440000,59.230000,0,JUNEAU,0,E,,,,N,N,N,N,N,N
206,4Z2,50300.1*A,AIRPORT,PU,AAL,NONE,HANNUM CREEK,KOBUK,AK,UPPER HANNUM CREEK,PR,-163.320000,65.900000,1300,NOME,0,,,,,N,N,N,N,N,N
207,HWI,50303.*C,SEAPLANE BASE,PR,AAL,NONE,HAWK INLET,SKAGWAY-YAKUTAT,AK,HAWK INLET,PR,-134.750000,58.120000,0,JUNEAU,0,W,,,N,N,N,N,Y,N,N
208,HAY,50304.*A,AIRPORT,PU,AAL,NONE,HAYCOCK,NOME,AK,HAYCOCK,PU,-161.150000,65.200000,175,NOME,0,SE,,,N,N,N,N,N,N,N
209,HRR,50308.*A,AIRPORT,PU,AAL,NONE,HEALY,YUKON-KOYUKUK,AK,HEALY RIVER,PU,-148.960000,63.860000,1294,ANCHORAGE,0,N,,,NGY,N,N,N,Y,N,N
210,7AK7,50308.01*H,HELIPORT,PR,AAL,NONE,HEALY,YUKON-KOYUKUK,AK,ERA DENALI,PR,-148.880000,63.730000,1580,ANCHORAGE,8,SE,02/1992,,,,,,,N,N
211,AK33,50310.15*A,AIRPORT,PR,AAL,NONE,HERENDEEN BAY,ALEUTIAN ISLANDS,AK,HERENDEEN BAY,PR,-160.890000,55.800000,20,COLD BAY,0,W,,,,N,N,N,N,N,N
212,2AK5,50310.4*A,AIRPORT,PR,AAL,NONE,HINCHINBROOK,CORDOVA-MCCARTHY,AK,JOHNSTONE POINT,PU,-146.580000,60.480000,15,ANCHORAGE,17,SW,,,,N,N,N,N,N,N
213,2AK6,50312.5*A,AIRPORT,PR,AAL,NONE,HOGATZA,YUKON-KOYUKUK,AK,HOG RIVER,PR,-155.660000,66.210000,680,FAIRBANKS,0,SE,,,N,N,N,N,N,N,N
214,HYL,50317.3*C,SEAPLANE BASE,PU,AAL,NONE,HOLLIS,PRINCE OF WALES,AK,HOLLIS,PU,-132.640000,55.480000,0,KETCHIKAN,0,W,,,,N,N,N,N,N,N
215,4Z4,50318.*A,AIRPORT,PU,AAL,NONE,HOLY CROSS,KUSKOKWIM,AK,HOLY CROSS,PU,-159.770000,62.180000,70,MC GRATH,1,S,,,NGSY,N,N,N,Y,N,N
216,HOM,50320.*A,AIRPORT,PU,AAL,NONE,HOMER,KENAI-COOK INLET,AK,HOMER,PU,-151.470000,59.640000,84,SEWARD,2,E,,AS 04/1985,NGY,N,N,N,Y,N,N
217,5BL,50320.1*C,SEAPLANE BASE,PU,AAL,NONE,HOMER,KENAI-COOK INLET,AK,HOMER-BELUGA LAKE,PU,-151.500000,59.640000,25,KODIAK,1,E,,,,N,N,N,N,N,N
218,AK17,50320.12*A,AIRPORT,PR,AAL,NONE,HOMER,KENAI-COOK INLET,AK,GLACIERVIEW STRIP,PR,-151.220000,59.760000,1600,SEWARD,15,NE,12/1991,,,,,,,N,N
219,AK18,50320.13*A,AIRPORT,PR,AAL,NONE,HOMER,KENAI-COOK INLET,AK,CAMP POINT,PR,-153.080000,59.820000,8,KODIAK,40,N,12/1991,,,,,,,N,N
220,2AK4,50320.14*A,AIRPORT,PR,AAL,NONE,HOMER,KENAI-COOK INLET,AK,OYSTER COVE,PR,-151.510000,59.470000,45,SEWARD,11,NW,11/1992,,,,,,,N,N
221,46AK,50320.2*A,AIRPORT,PR,AAL,NONE,HOMER,KENAI PENINSULA,AK,BEAR COVE FARM,PR,-151.020000,59.730000,115,SEWARD,16,N,04/1988,,,,,,,N,N
222,OOH,50321.*C,SEAPLANE BASE,PU,AAL,NONE,HOONAH,SKAGWAY-YAKUTAT,AK,HOONAH,PU,-135.450000,58.110000,0,JUNEAU,0,W,,,1,N,N,N,Y,N,N
223,HNH,50321.01*A,AIRPORT,PU,AAL,NONE,HOONAH,JUNEAU,AK,HOONAH,PU,-135.400000,58.090000,20,JUNEAU,1,SE,,,N,N,N,N,Y,N,N
224,HPB,50322.*A,AIRPORT,PU,AAL,NONE,HOOPER BAY,WADE HAMPTON,AK,HOOPER BAY,PU,-166.140000,61.520000,18,BETHEL,2,SW,,,NGSY,N,N,N,Y,N,N
225,5HO,50324.*A,AIRPORT,PU,AAL,NONE,HOPE,SEWARD,AK,HOPE,PU,-149.620000,60.900000,200,ANCHORAGE,1,SE,,,,N,N,N,Y,N,N
226,4Z5,50324.6*A,AIRPORT,PU,AAL,NONE,HORSFELD,FAIRBANKS,AK,HORSFELD,PU,-141.180000,62.000000,3300,ANCHORAGE,28,SSE,,,,N,N,N,N,N,N
227,13AK,50325.*A,AIRPORT,PR,AAL,NONE,HOUSTON,MATA-SUS BOROUGH,AK,SATTERBURGS,PR,-149.880000,61.640000,350,ANCHORAGE,0,N,,,,,,,,N,N
228,HUS,50328.*A,AIRPORT,PU,AAL,NONE,HUGHES,YUKON-KOYUKUK,AK,HUGHES,PU,-154.260000,66.040000,289,FAIRBANKS,1,SW,,,NS1,N,N,N,,N,N
229,HSL,50330.*A,AIRPORT,PU,AAL,NONE,HUSLIA,YUKON-KOYUKUK,AK,HUSLIA,PU,-156.380000,65.700000,180,FAIRBANKS,1,NE,,,NGY,N,N,N,,N,N
230,HYG,50335.*C,SEAPLANE BASE,PU,AAL,NONE,HYDABURG,PRINCE OF WALES,AK,HYDABURG,PU,-132.820000,55.200000,0,KETCHIKAN,0,SW,,,NY1,N,N,N,Y,N,N
231,4Z7,50336.*C,SEAPLANE BASE,PU,AAL,NONE,HYDER,KETCHIKAN,AK,HYDER,PU,-130.000000,55.900000,0,KETCHIKAN,0,S,,,N,N,Y,N,N,N,N
232,19AK,50336.6*A,AIRPORT,PR,AAL,NONE,ICY BAY,SKAGWAY-YAKUTAT,AK,ICY BAY,PU,-141.660000,59.960000,50,SEWARD,73,NW,,,N,N,N,N,N,N,N
233,2AK8,50337.*A,AIRPORT,PR,AAL,NONE,ICY CAPE,BARROW,AK,ICY CAPE AFS,PU,-161.900000,70.290000,48,CAPE LISBURNE,0,NE,,,,N,N,N,Y,N,N
234,IGG,50338.*A,AIRPORT,PU,AAL,NONE,IGIUGIG,BRISTOL BAY,AK,IGIUGIG,PU,-155.900000,59.320000,84,KODIAK,0,S,,,NP,N,N,N,Y,N,N
235,ILI,50340.*A,AIRPORT,PU,AAL,NONE,ILIAMNA,BRISTOL BAY,AK,ILIAMNA,PU,-154.910000,59.750000,186,KODIAK,3,W,,AS 06/1987,NGPY,N,N,N,Y,N,N
236,2AK9,50340.8*A,AIRPORT,PR,AAL,NONE,INDEPENDENCE CREEK,KOBUK,AK,INDEPENDENCE CREEK,PR,-162.460000,65.670000,250,NOME,0,W,,,,N,N,N,N,N,N
237,KIB,50353.*C,SEAPLANE BASE,PU,AAL,NONE,IVANOF BAY,ALEUTIAN ISLANDS,AK,IVANOF BAY,PU,-159.480000,55.890000,0,COLD BAY,0,S,,,N,N,N,N,N,N,N
238,4Z9,50360.*A,AIRPORT,PU,AAL,NONE,JAKOLOF BAY,KENAI-COOK INLET,AK,JAKOLOF BAY,PU,-151.520000,59.450000,5,KODIAK,0,N,,,,N,N,N,N,N,N
239,AK60,50363.*A,AIRPORT,PR,AAL,NONE,JENSENS,BRISTOL BAY,AK,FORT JENSEN,PR,-157.090000,57.880000,240,KODIAK,0,NE,,,,N,N,N,N,N,N
240,JNU,50385.*A,AIRPORT,PU,AAL,NONE,JUNEAU,JUNEAU,AK,JUNEAU INTL,PU,-134.570000,58.350000,19,JUNEAU,7,NW,,CS 05/1973,NGPSY,Y,N,N,Y,Y,Y
241,AK94,50385.01*H,HELIPORT,PR,AAL,NONE,JUNEAU,JUNEAU,AK,ALASCOM/COASTAL LENA POINT,PR,-134.770000,58.390000,150,JUNEAU,6,SE,08/1997,,,,,,,N,N
242,5Z1,50385.05*C,SEAPLANE BASE,PU,AAL,NONE,JUNEAU,JUNEAU,AK,JUNEAU HARBOR,PU,-134.400000,58.290000,0,JUNEAU,0,N,,,N,N,N,N,Y,N,N
243,5Z2,50385.2*H,HELIPORT,PR,AAL,NONE,JUNEAU,JUNEAU,AK,NORTH DOUGLAS,PR,-134.490000,58.330000,25,JUNEAU,3,NW,,,,N,N,N,N,N,N
244,KAE,50393.*C,SEAPLANE BASE,PU,AAL,NONE,KAKE,WRANGELL-PETERSBURG,AK,KAKE,PU,-133.940000,56.970000,0,JUNEAU,0,S,,,NGY,N,N,N,Y,N,N
245,AFE,50393.01*A,AIRPORT,PU,AAL,NONE,KAKE,WRANGELL-PETERSBURG,AK,KAKE,PU,-133.900000,56.960000,172,JUNEAU,1,W,11/1986,,,,,,Y,N,N
246,BTI,50395.*A,AIRPORT,PU,AAL,NONE,BARTER ISLAND LRRS,UPPER YUKON,AK,BARTER ISLAND LRRS,MA,-143.570000,70.130000,5,POINT BARROW,2,S,,LS 05/1973,N,N,N,N,,N,N
247,1KC,50395.01*A,AIRPORT,PR,AAL,NONE,KALAKAKET CREEK,YUKON-KOYUKUK,AK,KALAKAKET CREEK AS,MA,-156.840000,60.420000,1598,FAIRBANKS,0,,08/1999,,,,,,,N,N
248,KLG,50397.*A,AIRPORT,PU,AAL,NONE,KALSKAG,KUSKOKWIM,AK,KALSKAG,PU,-160.340000,61.530000,55,MC GRATH,1,W,,,NS1,N,N,N,Y,N,N
249,KAL,50398.*A,AIRPORT,PU,AAL,NONE,KALTAG,YUKON-KOYUKUK,AK,KALTAG,PU,-158.740000,64.320000,200,NOME,1,SW,,,NGSY,N,N,N,,N,N
250,5Z4,50398.7*H,HELIPORT,PU,AAL,NONE,KANAKANAK,BRISTOL BAY,AK,ANS HOSPITAL,PU,-158.530000,59.000000,100,KODIAK,0,NE,,,,N,N,N,N,N,N
251,5Z5,50399.*A,AIRPORT,PU,AAL,NONE,KANTISHNA,YUKON-KOYUKUK,AK,KANTISHNA,PU,-150.990000,63.540000,1575,ANCHORAGE,2,NW,,,,N,N,,Y,N,N
252,Z90,50399.1*A,AIRPORT,PU,AAL,NONE,KANTISHNA,YUKON-KOYUKUK,AK,STAMPEDE,PU,-150.320000,63.740000,1850,ANCHORAGE,25,NE,,,,N,N,N,Y,N,N
253,KYK,50399.7*A,AIRPORT,PU,AAL,NONE,KARLUK,KODIAK,AK,KARLUK,PU,-154.450000,57.560000,137,KODIAK,1,E,,,NGY,N,N,N,Y,N,N
254,KKL,50399.71*C,SEAPLANE BASE,PU,AAL,NONE,KARLUK LAKE,KODIAK,AK,KARLUK LAKE,PU,-154.020000,57.360000,368,KODIAK,0,W,,,,N,N,N,N,N,N
255,KXA,50400.*C,SEAPLANE BASE,PU,AAL,NONE,KASAAN,PRINCE OF WALES,AK,KASAAN,PU,-132.390000,55.530000,0,KETCHIKAN,0,W,,,NGY,N,N,N,Y,N,N
256,Z09,50405.5*A,AIRPORT,PU,AAL,NONE,KASIGLUK,BETHEL,AK,KASIGLUK,PU,-162.520000,60.870000,40,MC GRATH,2,S,,,NGY,N,N,N,Y,N,N
257,5KS,50406.*A,AIRPORT,PU,AAL,NONE,KASILOF,KENAI-COOK INLET,AK,KASILOF,PU,-151.260000,60.350000,125,ANCHORAGE,2,N,,,,N,N,N,Y,N,N
258,41AK,50406.1*A,AIRPORT,PR,AAL,NONE,KASILOF,KENAI PENINSULA,AK,WINTER'S STRIP,PR,-151.320000,60.310000,112,KETCHIKAN,3,SW,09/1987,,,,,,,N,N
259,5Z7,50406.4*A,AIRPORT,PU,AAL,NONE,KASITSNA BAY,KENAI-COOK INLET,AK,KASITSNA,PU,-151.570000,59.460000,5,KODIAK,0,N,,,,N,N,N,N,N,N
260,5Z9,50407.3*C,SEAPLANE BASE,PU,AAL,NONE,KATMAI NATIONAL PARK,BRISTOL BAY,AK,LAKE BROOKS,PU,-155.770000,58.550000,36,KODIAK,0,W,,,,N,N,N,N,N,N
261,ENA,50410.*A,AIRPORT,PU,AAL,NONE,KENAI,KENAI-COOK INLET,AK,KENAI MUNI,PU,-151.240000,60.570000,97,ANCHORAGE,0,N,,AS 05/1973,NGPY,N,N,N,Y,Y,N
262,3AK5,50410.11*A,AIRPORT,PR,AAL,NONE,KENAI,KENAI-COOK INLET,AK,DRIFT RIVER,PR,-152.160000,60.580000,30,MC GRATH,26,W,,,,N,N,N,N,N,N
263,45A,50410.12*A,AIRPORT,PR,AAL,NONE,KENAI,KENAI PENINSULA,AK,CARTY'S AIRSTRIP,PR,-151.290000,60.700000,150,ANCHORAGE,8,N,,,,,,,,N,N
264,2R3,50410.13*C,SEAPLANE BASE,PU,AAL,NONE,KENAI,KENAI PENINSULA,AK,ISLAND LAKE,PU,-151.310000,60.700000,140,ANCHORAGE,9,N,11/1992,,,,,,,N,N
265,6Z1,50410.14*A,AIRPORT,PU,AAL,NONE,KENAI,KENAI-COOK INLET,AK,ARNESS LAKE,PR,-151.300000,60.640000,125,ANCHORAGE,6,NW,,,,N,N,N,N,N,N
266,30AK,50410.16*A,AIRPORT,PR,AAL,NONE,KENAI,KENAI PENINSULA,AK,DOYLE ESTATES,PR,-151.260000,60.500000,50,ANCHORAGE,3,SE,11/1992,,,,,,,N,N
267,3AK4,50410.17*A,AIRPORT,PR,AAL,NONE,KENAI,KENAI-COOK INLET,AK,JOHNSON,PR,-151.340000,60.630000,102,ANCHORAGE,5,NW,,,,N,N,N,N,N,N
268,6AK3,50410.19*A,AIRPORT,PR,AAL,NONE,KENAI,KENAI-COOK INLET,AK,BUTLER AVIATION,PR,-151.270000,60.720000,185,ANCHORAGE,9,NW,,,,N,N,,,N,N
269,9C0,50412.*C,SEAPLANE BASE,PU,AAL,NONE,KETCHIKAN,KETCHIKAN,AK,PENINSULA POINT PULLOUT,PU,-131.730000,55.380000,0,KETCHIKAN,4,NW,04/1987,,,N,N,N,Y,N,N
270,6Z4,50412.01*H,HELIPORT,PR,AAL,NONE,KETCHIKAN,KETCHIKAN,AK,KETCHIKAN /TEMSCO H/,PR,-131.730000,55.380000,20,KETCHIKAN,4,NW,,,,N,N,N,N,N,N
271,KTN,50412.03*A,AIRPORT,PU,AAL,NONE,KETCHIKAN,KETCHIKAN,AK,KETCHIKAN INTL,PU,-131.710000,55.350000,88,KETCHIKAN,1,W,,BS 06/1973,NGY,N,Y,N,Y,N,Y
272,5KE,50412.04*C,SEAPLANE BASE,PU,AAL,NONE,KETCHIKAN,KETCHIKAN,AK,KETCHIKAN HARBOR,PU,-131.670000,55.340000,0,KETCHIKAN,0,W,,,,Y,N,N,N,N,N
273,8K9,50412.1*C,SEAPLANE BASE,PU,AAL,NONE,KETCHIKAN,KETCHIKAN,AK,MURPHYS PULLOUT,PU,-131.730000,55.380000,0,KETCHIKAN,5,NW,11/1986,,N,,,,,N,N
274,IAN,50412.9*A,AIRPORT,PU,AAL,NONE,KIANA,KOBUK,AK,BOB BAKER MEML,PU,-160.430000,66.970000,150,NOME,1,N,,,NGSY,N,N,N,Y,N,N
275,KVC,50414.1*A,AIRPORT,PU,AAL,NONE,KING COVE,ALEUTIAN ISLANDS,AK,KING COVE,PU,-162.260000,55.110000,155,COLD BAY,4,NE,,,NGY,N,N,N,Y,N,N
276,AKN,50416.*A,AIRPORT,PU,AAL,NONE,KING SALMON,BRISTOL BAY,AK,KING SALMON,PU,-156.640000,58.670000,57,KODIAK,0,SE,,BS 03/1978,NGY,N,N,Y,Y,Y,Y
277,IIK,50416.31*A,AIRPORT,PU,AAL,NONE,KIPNUK,BETHEL,AK,KIPNUK,PU,-164.030000,59.930000,11,BETHEL,0,SE,,,NGY,N,N,N,Y,N,N
278,KKB,50416.6*C,SEAPLANE BASE,PU,AAL,NONE,KITOI BAY,KODIAK,AK,KITOI BAY,PU,-152.370000,58.190000,0,KODIAK,0,NE,,,N,N,N,N,N,N,N
279,KVL,50417.*A,AIRPORT,PU,AAL,NONE,KIVALINA,KODIAK ISLAND,AK,KIVALINA,PU,-164.550000,67.730000,10,NOME,0,NW,,,NGY,N,N,N,Y,N,N
280,AQC,50420.*C,SEAPLANE BASE,PU,AAL,NONE,KLAWOCK,PRINCE OF WALES,AK,KLAWOCK,PU,-133.100000,55.550000,0,KETCHIKAN,0,W,,,N,N,N,N,N,N,N
281,AKW,50420.01*A,AIRPORT,PU,AAL,NONE,KLAWOCK,PRINCE OF WALES,AK,KLAWOCK,PU,-133.070000,55.570000,80,KETCHIKAN,2,NE,,,NGY,N,N,N,Y,N,N
282,OBU,50422.1*A,AIRPORT,PU,AAL,NONE,KOBUK,KOBUK,AK,KOBUK,PU,-156.860000,66.900000,145,FAIRBANKS,0,N,,,N,N,N,N,Y,N,N
283,KDK,50423.*A,AIRPORT,PU,AAL,NONE,KODIAK,KODIAK,AK,KODIAK MUNI,PU,-152.370000,57.800000,139,KODIAK,2,NE,,,PY,N,N,N,Y,N,N
284,9Z3,50424.*C,SEAPLANE BASE,PU,AAL,NONE,KODIAK,KODIAK,AK,KODIAK /LILY LAKE/,PU,-152.380000,57.800000,130,KODIAK,1,NE,,,,N,Y,N,N,N,N
285,ADQ,50425.*A,AIRPORT,PU,AAL,NONE,KODIAK,KODIAK,AK,KODIAK,PU,-152.490000,57.740000,73,KODIAK,3,SW,,AS 05/1973,NGY,N,Y,N,Y,Y,Y
286,T44,50425.1*C,SEAPLANE BASE,PU,AAL,NONE,KODIAK,KODIAK ISLAND,AK,TRIDENT BASIN,PU,-152.390000,57.780000,0,KODIAK,0,N,08/1997,,,,,,,N,N
287,AK74,50425.2*H,HELIPORT,PR,AAL,NONE,KODIAK,KODIAK ISLAND,AK,KODIAK EMERGENCY/SPRUCE CAPE,PU,-152.350000,57.800000,41,KODIAK,2,W,11/1990,,,,,,,N,N
288,5KO,50425.6*A,AIRPORT,PU,AAL,NONE,KOGGIUNG,BRISTOL BAY,AK,KOGGIUNG,PR,-157.010000,58.870000,30,KODIAK,0,NE,,,,N,N,N,N,N,N
289,3AK9,50425.8*A,AIRPORT,PR,AAL,NONE,KOGRU RIVER,BARROW,AK,KOGRU RIVER,PU,-152.250000,70.570000,15,POINT BARROW,0,S,,,,N,N,N,,N,N
290,9K2,50426.25*A,AIRPORT,PU,AAL,NONE,KOKHANOK,BRISTOL BAY,AK,KOKHANOK,PU,-154.800000,59.430000,150,KODIAK,2,SW,11/1986,,GY,,,,,N,N
291,DUY,50426.6*A,AIRPORT,PU,AAL,NONE,KONGIGANAK,BETHEL,AK,KONGIGANAK,PU,-162.880000,59.950000,25,BETHEL,8,NE,,,NGY,N,N,,Y,N,N
292,2A9,50427.61*A,AIRPORT,PU,AAL,NONE,KOTLIK,WADE HAMPTON,AK,KOTLIK/NEW,PU,-163.520000,63.030000,15,BETHEL,1,W,10/1999,,NGY,,,,,N,N
293,OTZ,50429.*A,AIRPORT,PU,AAL,NONE,KOTZEBUE,KOBUK,AK,RALPH WIEN MEMORIAL,PU,-162.590000,66.880000,11,NOME,1,S,,BS 05/1973,NGSY,N,N,N,Y,N,Y
294,KKA,50433.2*A,AIRPORT,PU,AAL,NONE,KOYUK,NOME,AK,KOYUK,PU,-161.150000,64.930000,120,NOME,0,NE,,,NGY,N,N,N,Y,N,N
295,KYU,50436.*A,AIRPORT,PU,AAL,NONE,KOYUKUK,YUKON-KOYUKUK,AK,KOYUKUK,PU,-157.710000,64.870000,115,FAIRBANKS,0,W,,,N,N,N,N,N,N,N
296,LKK,50437.*A,AIRPORT,PU,AAL,NONE,KULIK LAKE,BRISTOL BAY,AK,KULIK LAKE,PU,-155.120000,58.980000,717,KODIAK,1,S,,,,N,N,N,N,N,N
297,UBW,50437.51*A,AIRPORT,PR,AAL,NONE,KUPARUK,ANGOON,AK,UGNU-KUPARUK,PR,-149.590000,70.330000,67,POINT BARROW,0,N,,LU 12/1981,,,,,,N,N
298,9Z7,50438.25*A,AIRPORT,PU,AAL,NONE,KVICHAK,BRISTOL BAY,AK,KVICHAK /DIAMOND J/,PR,-156.930000,58.960000,25,KODIAK,0,S,,,,N,N,N,N,N,N
299,KWT,50438.5*A,AIRPORT,PU,AAL,NONE,KWETHLUK,BETHEL,AK,KWETHLUK,PU,-161.440000,60.800000,28,MC GRATH,0,S,,,N,N,N,N,Y,N,N
300,KWK,50438.6*C,SEAPLANE BASE,PU,AAL,NONE,KWIGILLINGOK,BETHEL,AK,KWIGILLINGOK,PU,-163.140000,59.830000,0,BETHEL,0,S,,,,N,N,N,N,N,N
301,A85,50438.61*A,AIRPORT,PU,AAL,NONE,KWIGILLINGOK,BETHEL,AK,KWIGILLINGOK,PU,-163.160000,59.870000,20,BETHEL,1,NW,,,NGY,N,N,N,Y,N,N
302,Z55,50439.*A,AIRPORT,PU,AAL,NONE,LAKE LOUISE,VALDEZ-CHITNA-WHITIE,AK,LAKE LOUISE,PU,-146.570000,62.290000,2450,ANCHORAGE,1,NE,,,,N,N,N,Y,N,N
303,13S,50439.1*C,SEAPLANE BASE,PU,AAL,NONE,LAKE LOUISE,VALDEZ-CHITNA-WHITIE,AK,LAKE LOUISE,PR,-146.510000,62.280000,2362,ANCHORAGE,0,E,,,,N,N,N,N,N,N
304,2A3,50439.71*A,AIRPORT,PU,AAL,NONE,LARSEN BAY,ALEUTIAN ISLANDS,AK,LARSEN BAY,PU,-153.970000,57.530000,77,KODIAK,0,SW,,,NGY,N,N,,Y,N,N
305,9Z9,50447.*A,AIRPORT,PU,AAL,NONE,LAWING,KENAI-COOK INLET,AK,LAWING,PU,-149.370000,60.410000,475,ANCHORAGE,1,N,,,,N,N,N,Y,N,N
306,ALZ,50448.*C,SEAPLANE BASE,PU,AAL,NONE,LAZY BAY,KODIAK,AK,ALITAK,PR,-154.240000,56.890000,0,KODIAK,0,S,,,N,N,N,N,N,N,N
307,KLL,50449.*A,AIRPORT,PU,AAL,NONE,LEVELOCK,BRISTOL BAY,AK,LEVELOCK,PU,-156.860000,59.110000,60,KODIAK,0,NW,,,N,N,N,N,Y,N,N
308,11Z,50449.1*A,AIRPORT,PU,AAL,NONE,LIGNITE,YUKON-KOYUKUK,AK,LIGNITE,PR,-149.020000,63.910000,1171,ANCHORAGE,0,SE,,,,N,N,N,N,N,N
309,2AK,50449.5*A,AIRPORT,PU,AAL,NONE,LIME VILLAGE,KUSKOKWIM,AK,LIME VILLAGE,PU,-155.440000,61.350000,552,MC GRATH,0,N,,,N,,,,Y,N,N
310,4AK,50451.*A,AIRPORT,PU,AAL,NONE,LIVENGOOD,YUKON-KOYUKUK,AK,LIVENGOOD CAMP,PU,-148.660000,65.470000,425,FAIRBANKS,3,N,,,,N,N,,Y,N,N
311,AK71,50453.*A,AIRPORT,PR,AAL,NONE,LONELY,BARROW,AK,LONELY AS,MA,-153.240000,70.910000,17,POINT BARROW,0,N,,LU 12/1977,,N,N,N,,N,N
312,4AK3,50454.5*A,AIRPORT,PR,AAL,NONE,LONG LAKE,VALDEZ-CHITNA-WHITIE,AK,LONG LAKE,PR,-143.320000,61.370000,1500,ANCHORAGE,0,W,,,,N,N,N,N,N,N
313,13Z,50455.6*C,SEAPLANE BASE,PU,AAL,NONE,LORING,KETCHIKAN,AK,LORING,PU,-131.630000,55.600000,0,KETCHIKAN,0,S,,,N,N,N,N,N,N,N
314,LSR,50456.*A,AIRPORT,PR,AAL,NONE,LOST RIVER,NOME,AK,LOST RIVER 1,PR,-167.160000,65.390000,80,NOME,0,,,,N,N,N,N,N,N,N
315,Z04,50456.1*A,AIRPORT,PR,AAL,NONE,LOST RIVER,NOME,AK,LOST RIVER 2,PR,-167.170000,65.450000,220,NOME,0,,,,,N,N,N,N,N,N
316,15Z,50464.01*A,AIRPORT,PU,AAL,NONE,MC CARTHY,CORDOVA-MCCARTHY,AK,MC CARTHY NR 2,PU,-142.900000,61.430000,1531,ANCHORAGE,1,NE,,,N,N,N,N,Y,N,N
317,AK31,50464.1*A,AIRPORT,PR,AAL,NONE,MC CARTHY,CORDOVA-MCCARTHY,AK,SWIFT CREEK,PR,-143.000000,61.410000,1225,ANCHORAGE,3,SW,02/2000,,,,,,,N,N
318,AK0,50465.*A,AIRPORT,PU,AAL,NONE,MC CARTHY,CORDOVA-MCCARTHY,AK,JAKES BAR,PU,-142.880000,61.210000,1052,ANCHORAGE,13,SE,,,,N,N,N,N,N,N
319,MCG,50467.*A,AIRPORT,PU,AAL,NONE,MC GRATH,KUSKOKWIM,AK,MC GRATH,PU,-155.600000,62.950000,337,MC GRATH,0,W,,,NGY,N,N,N,Y,N,N
320,AK40,50467.01*A,AIRPORT,PR,AAL,NONE,MC GRATH,KUSKOKWIM,AK,NIXON FORK MINE,PR,-154.760000,63.220000,1510,MC GRATH,28,NE,02/2000,,,,,,,N,N
321,16Z,50467.1*C,SEAPLANE BASE,PU,AAL,NONE,MC GRATH,KUSKOKWIM,AK,MC GRATH,PU,-155.590000,62.950000,325,MC GRATH,0,E,,,,N,N,N,N,N,N
322,INR,50470.*A,AIRPORT,PU,AAL,NONE,MC KINLEY PARK,YUKON-KOYUKUK,AK,MC KINLEY NATIONAL PARK,PU,-148.910000,63.730000,1720,ANCHORAGE,2,NE,,,,N,N,N,Y,N,N
323,AK06,50470.1*A,AIRPORT,PR,AAL,NONE,MC KINLEY PARK,YUKON-KOYUKUK,AK,DENALI,PR,-148.790000,63.640000,2050,ANCHORAGE,4,SW,,,,N,N,N,N,N,N
324,4AK5,50474.*A,AIRPORT,PR,AAL,NONE,MANKOMEN LAKE,VALDEZ-CHITNA-WHITIE,AK,MANKOMEN LAKE,PR,-144.470000,62.980000,3050,ANCHORAGE,0,NE,,,,N,N,N,N,N,N
325,MLY,50475.*A,AIRPORT,PU,AAL,NONE,MANLEY HOT SPRINGS,YUKON-KOYUKUK,AK,MANLEY HOT SPRINGS,PU,-150.640000,64.990000,270,FAIRBANKS,0,SW,,,N,N,N,,Y,N,N
326,17Z,50476.*A,AIRPORT,PU,AAL,NONE,MANOKOTAK,BRISTOL BAY,AK,MANOKOTAK,PU,-159.040000,58.980000,107,KODIAK,1,N,,,NGY,N,N,N,Y,N,N
327,MLL,50480.*A,AIRPORT,PU,AAL,NONE,MARSHALL,WADE HAMPTON,AK,MARSHALL,PU,-162.060000,61.860000,90,BETHEL,1,SE,,,N,N,N,N,Y,N,N
328,MYK,50482.*A,AIRPORT,PU,AAL,NONE,MAY CREEK,CORDOVA-MCCARTHY,AK,MAY CREEK,PU,-142.680000,61.330000,1650,ANCHORAGE,1,S,,,N,N,N,N,Y,N,N
329,MDR,50488.*A,AIRPORT,PU,AAL,NONE,MEDFRA,KUSKOKWIM,AK,MEDFRA,PU,-154.710000,63.100000,435,MC GRATH,0,W,,,N,N,N,N,Y,N,N
330,MYU,50488.5*A,AIRPORT,PU,AAL,NONE,MEKORYUK,BETHEL,AK,MEKORYUK,PU,-166.270000,60.370000,48,BETHEL,3,W,,,NGY,N,N,N,Y,N,N
331,MTM,50489.*C,SEAPLANE BASE,PU,AAL,NONE,METLAKATLA,KETCHIKAN,AK,METLAKATLA,PU,-131.570000,55.130000,0,KETCHIKAN,0,N,,,NGY,N,N,N,N,N,N
332,84K,50490.*C,SEAPLANE BASE,PU,AAL,NONE,MEYERS CHUCK,KETCHIKAN,AK,MEYERS CHUCK,PU,-132.250000,55.730000,0,KETCHIKAN,0,W,,,,N,N,N,N,N,N
333,MDO,50492.*A,AIRPORT,PU,AAL,NONE,MIDDLETON ISLAND,CORDOVA-MCCARTHY,AK,MIDDLETON ISLAND,PU,-146.300000,59.440000,87,SEWARD,1,S,,,,N,N,N,N,N,N
334,MHM,50497.*A,AIRPORT,PU,AAL,NONE,MINCHUMINA,YUKON-KOYUKUK,AK,MINCHUMINA,PU,-152.300000,63.880000,684,MC GRATH,0,SE,,,,N,N,N,Y,N,N
335,51Z,50498.1*A,AIRPORT,PU,AAL,NONE,MINTO,YUKON-KOYUKUK,AK,MINTO /NEW/,PU,-149.360000,65.140000,460,FAIRBANKS,1,E,,,NGSY,N,N,,Y,N,N
336,0AK3,50498.8*A,AIRPORT,PR,AAL,NONE,MONTANA CREEK,MATA-SUS BOROUGH,AK,PARKER LAKE,PR,-150.490000,62.030000,250,ANCHORAGE,14,N,08/1990,,,,,,,N,N
337,Z61,50499.*A,AIRPORT,PR,AAL,NONE,MOORE CREEK,KUSKOKWIM,AK,MOORE CREEK,PR,-157.150000,62.590000,980,MC GRATH,1,S,,,,N,N,N,N,N,N
338,52Z,50500.07*C,SEAPLANE BASE,PU,AAL,NONE,MOOSE PASS,SEWARD,AK,SUMMIT LAKE,PU,-149.490000,60.640000,1300,ANCHORAGE,7,NW,,,,N,N,N,N,N,N
339,KMY,50500.7*C,SEAPLANE BASE,PU,AAL,NONE,MOSER BAY,KODIAK,AK,MOSER BAY,PR,-154.140000,57.020000,0,KODIAK,0,E,,,N,N,N,N,N,N,N
340,MOU,50502.*A,AIRPORT,PU,AAL,NONE,MOUNTAIN VILLAGE,WADE HAMPTON,AK,MOUNTAIN VILLAGE,PU,-163.680000,62.090000,335,BETHEL,0,NE,,,,,,,Y,N,N
341,60Z,50514.*A,AIRPORT,PU,AAL,NONE,MYRTLE CREEK,YUKON-KOYUKUK,AK,MYRTLE CREEK,PU,-149.980000,67.210000,1670,FAIRBANKS,0,N,,,,N,N,N,N,N,N
342,IBN,50515.1*A,AIRPORT,PR,AAL,NONE,NABESNA,VALDEZ-CHITNA-WHITIE,AK,DEVILS MOUNTAIN LODGE,PR,-142.990000,62.400000,2880,ANCHORAGE,2,N,,,,N,N,N,N,N,N
343,76Z,50516.7*A,AIRPORT,PU,AAL,NONE,NAKEEN,BRISTOL BAY,AK,NAKEEN,PR,-157.040000,58.920000,50,KODIAK,0,NE,,,,N,N,N,N,N,N
344,5NK,50517.4*A,AIRPORT,PU,AAL,NONE,NAKNEK,BRISTOL BAY,AK,NAKNEK,PU,-157.010000,58.730000,70,KODIAK,1,N,,,N,N,N,N,Y,N,N
345,4AK9,50517.5*A,AIRPORT,PR,AAL,NONE,NAKNEK,BRISTOL BAY,AK,TIBBETTS,PR,-157.000000,58.730000,50,KODIAK,0,SE,,,,N,N,N,N,N,N
346,78Z,50519.5*C,SEAPLANE BASE,PU,AAL,NONE,NANCY LAKE,MATA-SUS BOROUGH,AK,NANCY LAKE,PR,-149.970000,61.680000,218,ANCHORAGE,0,NW,,,,N,N,N,N,N,N
347,WNA,50520.01*A,AIRPORT,PU,AAL,NONE,NAPAKIAK,BETHEL,AK,NAPAKIAK,PU,-161.960000,60.690000,20,BETHEL,0,W,,,N,N,N,,Y,N,N
348,PKA,50520.18*A,AIRPORT,PU,AAL,NONE,NAPASKIAK,BETHEL,AK,NAPASKIAK,PU,-161.770000,60.700000,24,BETHEL,0,S,,,NGY,N,N,N,Y,N,N
349,Z73,50523.35*A,AIRPORT,PU,AAL,NONE,NELSON LAGOON,ALEUTIAN ISLANDS,AK,NELSON LAGOON,PU,-161.160000,56.000000,14,ANCHORAGE,1,E,,,NGY,,,,Y,N,N
350,ENN,50524.*A,AIRPORT,PU,AAL,NONE,NENANA,YUKON-KOYUKUK,AK,NENANA MUNI,PU,-149.070000,64.540000,362,FAIRBANKS,1,S,,,NGPY,N,N,N,Y,N,N
351,JZZ,50528.41*A,AIRPORT,PU,AAL,NONE,KOLIGANEK,BRISTOL BAY,AK,KOLIGANEK,PU,-157.250000,59.720000,269,KODIAK,1,E,04/1997,,NGY,,,,,N,N
352,KNW,50528.7*A,AIRPORT,PU,AAL,NONE,NEW STUYAHOK,BRISTOL BAY,AK,NEW STUYAHOK,PU,-157.320000,59.440000,325,KODIAK,1,W,,,NGY,N,N,N,Y,N,N
353,EWU,50529.*A,AIRPORT,PU,AAL,NONE,NEWTOK,BETHEL,AK,NEWTOK,PU,-164.640000,60.930000,25,BETHEL,1,W,,,N,N,N,,Y,N,N
354,WWT,50529.01*C,SEAPLANE BASE,PU,AAL,NONE,NEWTOK,BETHEL,AK,NEWTOK,PU,-164.650000,60.920000,6,BETHEL,0,S,,,,N,N,N,N,N,N
355,IGT,50529.75*A,AIRPORT,PU,AAL,NONE,NIGHTMUTE,BETHEL,AK,NIGHTMUTE,PU,-164.680000,60.470000,14,BETHEL,2,N,,,NGY,,,,Y,N,N
356,1AK5,50529.78*H,HELIPORT,PR,AAL,NONE,NIKISKI,KENAI PENINSULA,AK,OFFSHORE STSTEMS-KENAI,PR,-151.300000,60.730000,150,ANCHORAGE,1,NW,,,,,,,,N,N
357,AK73,50529.81*A,AIRPORT,PR,AAL,NONE,NIKISHKA,KENAI-COOK INLET,AK,MCGAHAN INDUSTRIAL AIRPARK,PR,-151.300000,60.720000,150,ANCHORAGE,1,NW,11/1990,,,,,,,N,N
358,5NI,50529.9*A,AIRPORT,PU,AAL,NONE,NIKOLAI,KUSKOKWIM,AK,NIKOLAI,PU,-154.360000,63.010000,413,MC GRATH,1,NE,,,NGY,N,N,N,Y,N,N
359,IKO,50530.*A,AIRPORT,PR,AAL,NONE,NIKOLSKI,ALEUTIAN ISLANDS,AK,NIKOLSKI AS,MA,-168.850000,52.940000,73,DUTCH HARBOR,0,NE,,,,,,,,N,N
360,NIN,50533.*A,AIRPORT,PU,AAL,NONE,NINILCHIK,KENAI-COOK INLET,AK,NINILCHIK,PU,-151.580000,60.020000,276,MC GRATH,3,SE,,,,N,N,N,Y,N,N
361,WTK,50536.1*A,AIRPORT,PU,AAL,NONE,NOATAK,KOBUK,AK,NOATAK,PU,-162.970000,67.560000,88,NOME,1,SW,,,NGSY,N,N,N,Y,N,N
362,94Z,50538.*A,AIRPORT,PU,AAL,NONE,NOME,NOME,AK,NOME CITY FIELD,PU,-165.390000,64.510000,59,NOME,1,N,,,,N,N,N,Y,N,N
363,OME,50540.*A,AIRPORT,PU,AAL,NONE,NOME,NOME,AK,NOME,PU,-165.440000,64.510000,37,NOME,2,W,,BS 05/1973,NGPY,N,Y,N,Y,N,Y
364,5NN,50540.1*A,AIRPORT,PU,AAL,NONE,NONDALTON,BRISTOL BAY,AK,NONDALTON,PU,-154.830000,59.970000,310,KODIAK,1,NW,,,N1,N,N,N,Y,N,N
365,ORV,50541.1*A,AIRPORT,PU,AAL,NONE,NOORVIK,KOBUK,AK,ROBERT /BOB/ CURTIS MEML,PU,-161.020000,66.820000,63,NOME,1,S,,,NGY,N,N,N,Y,N,N
366,0AK0,50543.7*A,AIRPORT,PR,AAL,NONE,NORTH POLE,KODIAK ISLAND,AK,SCOTTS,PR,-146.860000,64.390000,800,FAIRBANKS,26,NE,08/1997,,,,,,,N,N
367,95Z,50543.71*A,AIRPORT,PU,AAL,NONE,NORTH POLE,FAIRBANKS,AK,BRADLEY SKY-RANCH,PR,-147.380000,64.750000,483,FAIRBANKS,1,NW,,,,N,N,N,N,N,N
368,5AK2,50543.72*A,AIRPORT,PR,AAL,NONE,NORTH POLE,FAIRBANKS,AK,HOWARDS,PR,-147.340000,64.730000,490,FAIRBANKS,2,SE,,,,N,N,N,N,N,N
369,0AK8,50543.73*H,HELIPORT,PR,AAL,NONE,NORTH POLE,FAIRBANKS NORTH STAR,AK,POLLUX,PR,-147.490000,64.890000,515,FAIRBANKS,7,NE,,,,,,,,N,N
370,5AK3,50543.74*A,AIRPORT,PR,AAL,NONE,NORTH POLE,FAIRBANKS,AK,WRIGHTS,PR,-147.330000,64.770000,480,FAIRBANKS,2,NE,,,,N,N,N,N,N,N
371,AK41,50543.75*A,AIRPORT,PR,AAL,NONE,NORTH POLE,FAIRBANKS NORTH STAR,AK,GREG'N SAGE,PR,-146.840000,64.540000,925,FAIRBANKS,19,SE,02/2000,,,,,,,N,N
372,ORT,50544.*A,AIRPORT,PU,AAL,NONE,NORTHWAY,FAIRBANKS,AK,NORTHWAY,PU,-141.920000,62.960000,1716,ANCHORAGE,0,S,,,NGY,N,Y,N,,N,N
373,96Z,50544.4*C,SEAPLANE BASE,PU,AAL,NONE,NORTH WHALE PASS,PRINCE OF WALES,AK,NORTH WHALE,PR,-133.120000,56.110000,0,JUNEAU,0,W,,,,N,N,N,N,N,N
374,97Z,50548.*A,AIRPORT,PU,AAL,NONE,NUGGET BENCH,MATA-SUS BOROUGH,AK,NUGGET BENCH,PU,-150.940000,62.510000,2010,ANCHORAGE,1,SE,,,,N,N,N,N,N,N
375,AQT,50548.8*A,AIRPORT,PU,AAL,NONE,NUIQSUT,NORTH SLOPE,AK,NUIQSUT,PU,-151.000000,70.200000,38,POINT BARROW,0,S,,,N,,,,,N,N
376,NUL,50550.*A,AIRPORT,PU,AAL,NONE,NULATO,YUKON-KOYUKUK,AK,NULATO,PU,-158.070000,64.720000,403,NOME,1,NE,,,N,N,N,N,Y,N,N
377,16A,50552.1*A,AIRPORT,PU,AAL,NONE,NUNAPITCHUK,BETHEL,AK,NUNAPITCHUK,PU,-162.430000,60.900000,12,BETHEL,0,E,01/1988,,,,,,Y,N,N
378,ZNC,50555.*A,AIRPORT,PR,AAL,NONE,NYAC,BETHEL,AK,NYAC,PR,-159.990000,60.980000,460,MC GRATH,2,SW,,,N,N,N,N,N,N,N
379,6R7,50558.1*A,AIRPORT,PU,AAL,NONE,OLD HARBOR,KODIAK ISLAND,AK,OLD HARBOR,PU,-153.260000,57.210000,55,KODIAK,2,NE,08/1993,,,,,,Y,N,N
380,KOY,50559.*C,SEAPLANE BASE,PU,AAL,NONE,OLGA BAY,KODIAK,AK,OLGA BAY,PR,-154.220000,57.160000,0,KODIAK,0,S,,,N,N,N,N,N,N,N
381,OLI,50560.*A,AIRPORT,PR,AAL,NONE,OLIKTOK POINT,BARROW,AK,OLIKTOK LRRS,MA,-149.870000,70.490000,16,POINT BARROW,0,S,,,,N,N,N,,N,N
382,Z17,50575.*A,AIRPORT,PU,AAL,NONE,OPHIR,KUSKOKWIM,AK,OPHIR,PU,-156.520000,63.140000,575,MC GRATH,0,NW,,,N,N,N,N,N,N,N
383,4K5,50580.1*A,AIRPORT,PU,AAL,NONE,OUZINKIE,KODIAK,AK,OUZINKIE,PU,-152.500000,57.920000,55,KODIAK,0,N,,,N,,,,Y,N,N
384,PAQ,50584.*A,AIRPORT,PU,AAL,NONE,PALMER,MATA-SUS BOROUGH,AK,PALMER MUNI,PU,-149.080000,61.590000,248,ANCHORAGE,1,SE,,,NGSY,N,N,N,Y,N,N
385,3AK2,50584.1*A,AIRPORT,PR,AAL,NONE,PALMER,MATANUSKA SUSITNA,AK,NIKLASON LAKE ESTATES,PR,-149.280000,61.620000,410,ANCHORAGE,6,W,,,,,,,,N,N
386,AK46,50584.11*A,AIRPORT,PR,AAL,NONE,PALMER,MATANUSKA SUSITNA,AK,ABI,PR,-149.040000,61.620000,750,ANCHORAGE,2,N,02/2000,,,,,,,N,N
387,AK42,50584.12*H,HELIPORT,PR,AAL,NONE,PALMER,MATA-SUS BOROUGH,AK,VALLEY HOSPITAL - PALMER,PR,-149.090000,61.600000,248,ANCHORAGE,0,N,02/2000,,,,,,,N,N
388,AK53,50584.13*A,AIRPORT,PR,AAL,NONE,PALMER,ANCHORAGE,AK,DOWNWIND LANDING,PR,-148.990000,61.580000,220,ANCHORAGE,3,SE,02/2000,,,,,,,N,N
389,05AK,50584.14*A,AIRPORT,PR,AAL,NONE,PALMER,MATANUSKA SUSITNA,AK,WASILLA CREEK AIRPARK,PR,-149.180000,61.660000,275,ANCHORAGE,5,NW,02/2000,,,,,,,N,N
390,5AK6,50584.2*A,AIRPORT,PR,AAL,NONE,PALMER,MATANUSKA SUSITNA,AK,COLBERG,PR,-149.260000,61.550000,125,ANCHORAGE,6,SW,,,,N,N,,,N,N
391,4AK6,50584.21*A,AIRPORT,PR,AAL,NONE,PALMER,MATANUSKA SUSITNA,AK,WOLF LAKE,PR,-149.280000,61.630000,520,ANCHORAGE,6,W,,,,,,,,N,N
392,34AK,50584.22*A,AIRPORT,PR,AAL,NONE,PALMER,MATANUSKA SUSITNA,AK,CARDWELL STRIP,PR,-149.280000,61.620000,425,ANCHORAGE,8,W,,,,,,,,N,N
393,14AK,50584.4*A,AIRPORT,PR,AAL,NONE,PALMER,MATA-SUS BOROUGH,AK,FOUR CORNERS,PR,-149.160000,61.490000,300,ANCHORAGE,3,E,,,,,,,,N,N
394,AK50,50585.*A,AIRPORT,PR,AAL,NONE,PALMER,MATANUSKA SUSITNA,AK,SKY RANCH AT PIONEER PEAK,PR,-149.140000,61.550000,120,ANCHORAGE,3,SE,09/1988,,,,,,,N,N
395,99Z,50585.12*C,SEAPLANE BASE,PU,AAL,NONE,PALMER,MATA-SUS BOROUGH,AK,FINGER LAKE,PR,-149.290000,61.600000,337,ANCHORAGE,5,W,,,,N,N,N,N,N,N
396,3AK6,50585.13*A,AIRPORT,PR,AAL,NONE,PALMER,MATA-SUS BOROUGH,AK,B & B BOYS RANCH,PR,-149.260000,61.590000,300,ANCHORAGE,4,NE,,,,N,N,,,N,N
397,AK1,50585.14*A,AIRPORT,PU,AAL,NONE,PALMER,MATA-SUS BOROUGH,AK,BUTTE MUNI,PR,-149.010000,61.520000,64,ANCHORAGE,5,SE,,,,N,N,N,,N,N
398,KPH,50586.7*C,SEAPLANE BASE,PU,AAL,NONE,PAULOFF HARBOR /SANAK IS/,ALEUTIAN ISLANDS,AK,PAULOFF HARBOR,PU,-162.690000,54.450000,0,COLD BAY,0,NW,,,N,N,N,N,N,N,N
399,PXK,50587.*A,AIRPORT,PU,AAL,NONE,PAXSON,VALDEZ-CHITNA-WHITIE,AK,PAXSON,PR,-145.500000,63.020000,2653,ANCHORAGE,0,S,,,,N,N,N,N,N,N
400,4K0,50587.7*A,AIRPORT,PU,AAL,NONE,PEDRO BAY,BRISTOL BAY,AK,PEDRO BAY,PU,-154.120000,59.780000,45,KODIAK,1,W,,,NGY,N,N,N,Y,N,N
401,PEC,50588.1*C,SEAPLANE BASE,PU,AAL,NONE,PELICAN,SKAGWAY-YAKUTAT,AK,PELICAN,PU,-136.230000,57.950000,0,JUNEAU,0,S,,,N1,N,N,N,Y,N,N
402,PYL,50588.3*C,SEAPLANE BASE,PU,AAL,NONE,PERRY ISLAND,VALDEZ-CHITNA-WHITIE,AK,PERRY ISLAND,PR,-147.910000,60.680000,0,ANCHORAGE,0,S,,,N,N,N,N,N,N,N
403,AK5,50588.61*A,AIRPORT,PU,AAL,NONE,PERRYVILLE,ALEUTIAN ISLANDS,AK,PERRYVILLE,PU,-159.150000,55.900000,24,COLD BAY,1,SW,,,NGY,N,N,N,Y,N,N
404,63A,50590.*C,SEAPLANE BASE,PU,AAL,NONE,PETERSBURG,WRANGELL-PETERSBURG,AK,LLOYD R. ROUNDTREE SEAPLANE FACILITY,PU,-132.960000,56.810000,0,JUNEAU,0,SW,,,N1,N,Y,N,Y,N,N
405,PSG,50590.2*A,AIRPORT,PU,AAL,NONE,PETERSBURG,WRANGELL-PETERSBURG,AK,PETERSBURG JAMES A JOHNSON,PU,-132.940000,56.800000,107,JUNEAU,1,SE,,AS 05/1973,NGY,N,Y,N,Y,N,Y
406,PNP,50593.*A,AIRPORT,PU,AAL,NONE,PILOT POINT,ALEUTIAN ISLANDS,AK,PILOT POINT,PU,-157.560000,57.580000,57,KODIAK,1,SW,02/2000,,NGY,,,,,N,N
407,UGB,50594.51*A,AIRPORT,PU,AAL,NONE,PILOT POINT,BRISTOL BAY,AK,UGASHIK BAY,PU,-157.730000,57.420000,132,KODIAK,10,SE,,,,N,N,N,N,N,N
408,0AK,50594.7*A,AIRPORT,PU,AAL,NONE,PILOT STATION,WADE HAMPTON,AK,PILOT STATION,PU,-162.890000,61.930000,275,BETHEL,1,SW,,,N,N,N,N,Y,N,N
409,PTU,50598.*A,AIRPORT,PU,AAL,NONE,PLATINUM,BETHEL,AK,PLATINUM,PU,-161.810000,59.010000,15,KODIAK,0,W,,,N,N,N,N,Y,N,N
410,6AK1,50598.1*A,AIRPORT,PR,AAL,NONE,PLATINUM,BETHEL,AK,PLATINUM MINE,PR,-161.710000,58.910000,100,KODIAK,1,SE,,,,N,N,N,N,N,N
411,KPB,50599.*C,SEAPLANE BASE,PU,AAL,NONE,POINT BAKER,PRINCE OF WALES,AK,POINT BAKER,PU,-133.620000,56.350000,0,JUNEAU,0,SE,,,,N,N,N,N,N,N
412,PHO,50601.*A,AIRPORT,PU,AAL,NONE,POINT HOPE,KOBUK,AK,POINT HOPE,PU,-166.790000,68.340000,14,CAPE LISBURNE,2,SW,,,NGSY,N,N,N,Y,N,N
413,PIZ,50601.3*A,AIRPORT,PU,AAL,NONE,POINT LAY,BARROW,AK,POINT LAY LRRS,PU,-163.000000,69.730000,25,CAPE LISBURNE,0,S,,,NGY,N,N,Y,,N,N
414,6AK2,50601.51*A,AIRPORT,PR,AAL,NONE,POINT MACKENZIE,MATA-SUS BOROUGH,AK,SLEEPERS STRIP,PR,-149.960000,61.250000,125,ANCHORAGE,0,,,,,N,N,N,N,N,N
415,AK11,50602.*A,AIRPORT,PU,AAL,NONE,POINT MCINTYRE,UPPER YUKON,AK,POINT MCINTYRE,PU,-148.680000,70.400000,15,POINT BARROW,0,S,,,,N,N,N,N,N,N
416,PCK,50607.*A,AIRPORT,PU,AAL,NONE,PORCUPINE CREEK,YUKON-KOYUKUK,AK,PORCUPINE CREEK,PR,-150.280000,67.230000,1100,FAIRBANKS,0,N,,,N,N,N,N,N,N,N
417,A14,50609.31*A,AIRPORT,PU,AAL,NONE,PORTAGE CREEK,BRISTOL BAY,AK,PORTAGE CREEK,PU,-157.710000,58.900000,137,KODIAK,0,E,,,NGY,N,N,,Y,N,N
418,AHP,50610.*C,SEAPLANE BASE,PU,AAL,NONE,PORT ALEXANDER,WRANGELL-PETERSBURG,AK,PORT ALEXANDER,PU,-134.640000,56.240000,0,JUNEAU,0,NE,,,N1,N,N,N,Y,N,N
419,16K,50610.4*C,SEAPLANE BASE,PU,AAL,NONE,PORT ALICE,PRINCE OF WALES,AK,PORT ALICE,PR,-133.590000,55.780000,0,KETCHIKAN,0,S,,,,N,N,N,N,N,N
420,TPO,50610.8*A,AIRPORT,PR,AAL,NONE,PORT ALSWORTH,BRISTOL BAY,AK,PORT ALSWORTH,PR,-154.310000,60.200000,280,MC GRATH,0,SW,,,N,N,N,N,N,N,N
421,KPY,50612.3*C,SEAPLANE BASE,PU,AAL,NONE,PORT BAILEY,KODIAK,AK,PORT BAILEY,PR,-153.040000,57.930000,0,KODIAK,0,NE,,,N,N,N,N,N,N,N
422,KPC,50612.6*A,AIRPORT,PR,AAL,NONE,PORT CLARENCE,NOME,AK,PORT CLARENCE CGS,PU,-166.850000,65.250000,10,NOME,1,NE,,,,N,N,N,,N,N
423,PGM,50614.*A,AIRPORT,PU,AAL,NONE,PORT GRAHAM,KENAI-COOK INLET,AK,PORT GRAHAM,PU,-151.830000,59.340000,93,KODIAK,0,W,,,NS1,N,N,N,Y,N,N
424,PTH,50615.*A,AIRPORT,PU,AAL,NONE,PORT HEIDEN,ALEUTIAN ISLANDS,AK,PORT HEIDEN,PU,-158.630000,56.950000,88,KODIAK,6,NE,,AS 01/1989,NGY,N,N,N,Y,N,N
425,ORI,50615.2*A,AIRPORT,PU,AAL,NONE,PORT LIONS,KODIAK,AK,PORT LIONS,PU,-152.840000,57.880000,52,KODIAK,2,NE,,,NGY,N,N,N,Y,N,N
426,19P,50616.*C,SEAPLANE BASE,PU,AAL,NONE,PORT PROTECTION,PRINCE OF WALES,AK,PORT PROTECTION,PU,-133.610000,56.320000,0,JUNEAU,0,E,,,,N,N,N,N,N,N
427,PWR,50619.*C,SEAPLANE BASE,PU,AAL,NONE,PORT WALTER,WRANGELL-PETERSBURG,AK,PORT WALTER,PU,-134.650000,56.380000,0,JUNEAU,0,N,,,,N,N,N,N,N,N
428,KPR,50619.5*C,SEAPLANE BASE,PU,AAL,NONE,PORT WILLIAMS,KODIAK,AK,PORT WILLIAMS,PR,-152.580000,58.490000,0,KODIAK,0,S,,,N,N,N,N,N,N,N
429,PPC,50620.2*A,AIRPORT,PU,AAL,NONE,PROSPECT CREEK,UPPER YUKON,AK,PROSPECT CREEK,PU,-150.640000,66.810000,1099,FAIRBANKS,3,NE,,LU 12/1974,,N,N,N,Y,N,N
430,90AK,50620.31*H,HELIPORT,PR,AAL,NONE,PRUDHOE BAY/DEADHORSE,NORTH SLOPE,AK,NORTHSTAR,PR,-148.700000,70.490000,10,POINT BARROW,22,NW,02/2000,,,,,,,N,N
431,01A,50620.5*A,AIRPORT,PU,AAL,NONE,PURKEYPILE,KUSKOKWIM,AK,PURKEYPILE,PU,-152.270000,62.940000,1950,MC GRATH,10,SW,,,,N,N,N,N,N,N
432,20K,50622.5*A,AIRPORT,PU,AAL,NONE,QUAIL CREEK,YUKON-KOYUKUK,AK,QUAIL CREEK,PU,-149.760000,65.350000,1550,FAIRBANKS,1,S,,,,N,N,N,N,N,N
433,5QC,50623.*A,AIRPORT,PU,AAL,NONE,QUARTZ CREEK,NOME,AK,QUARTZ CREEK /KOUGAROK/,PU,-164.650000,65.400000,416,NOME,2,S,,,S1,N,N,N,Y,N,N
434,5QN,50623.2*A,AIRPORT,PR,AAL,NONE,QUEENS,BRISTOL BAY,AK,THE QUEENS,PR,-158.470000,58.870000,25,KODIAK,0,SE,,,N,N,N,N,N,N,N
435,AQH,50623.4*A,AIRPORT,PU,AAL,NONE,QUINHAGAK,BETHEL,AK,QUINHAGAK,PU,-161.870000,59.750000,10,KODIAK,1,NE,,,N,N,N,N,Y,N,N
436,6AK,50642.1*A,AIRPORT,PU,AAL,NONE,RAINY PASS,KUSKOKWIM,AK,RAINY PASS,PU,-152.710000,62.080000,1900,MC GRATH,2,E,,,,N,N,N,N,N,N
437,RMP,50645.*A,AIRPORT,PU,AAL,NONE,RAMPART,YUKON-KOYUKUK,AK,RAMPART,PU,-150.140000,65.500000,275,FAIRBANKS,2,E,,,NGY,N,N,N,N,N,N
438,RDV,50648.*A,AIRPORT,PU,AAL,NONE,RED DEVIL,KUSKOKWIM,AK,RED DEVIL,PU,-157.340000,61.780000,210,MC GRATH,1,NW,,,NS1,N,N,N,Y,N,N
439,AED,50651.*A,AIRPORT,PR,AAL,NONE,RED DOG,NOME,AK,RED DOG,PR,-162.900000,68.030000,974,NOME,1,S,,LU 06/1986,,,,,,N,N
440,RBY,50670.*A,AIRPORT,PU,AAL,NONE,RUBY,YUKON-KOYUKUK,AK,RUBY,PU,-155.460000,64.720000,654,FAIRBANKS,1,SE,,,NGY,N,N,N,N,N,N
441,RSH,50672.*A,AIRPORT,PU,AAL,NONE,RUSSIAN MISSION,WADE HAMPTON,AK,RUSSIAN MISSION,PU,-161.310000,61.770000,50,MC GRATH,0,S,,,NGY,N,N,N,Y,N,N
442,9AK2,50672.01*A,AIRPORT,PR,AAL,NONE,RUSSIAN MISSION,WADE HAMPTON,AK,KAKO,PR,-161.440000,61.890000,300,MC GRATH,10,NW,02/2000,,,,,,,N,N
443,A23,50680.*C,SEAPLANE BASE,PU,AAL,NONE,SAGINAW BAY,WRANGELL-PETERSBURG,AK,SAGINAW,PR,-134.150000,56.880000,0,JUNEAU,0,NE,,,N,N,N,N,N,N,N
444,SAG,50680.2*A,AIRPORT,PU,AAL,NONE,SAGWON,BARROW,AK,SAGWON,PU,-148.700000,69.360000,650,POINT BARROW,1,N,,,,N,N,N,Y,N,N
445,PBV,50680.4*A,AIRPORT,PU,AAL,NONE,ST GEORGE,BETHEL,AK,ST GEORGE,PU,-169.660000,56.570000,125,KODIAK,4,SW,07/1992,,NGY,,,,Y,N,N
446,KSM,50680.8*A,AIRPORT,PU,AAL,NONE,ST MARY'S,WADE HAMPTON,AK,ST MARY'S,PU,-163.300000,62.060000,311,BETHEL,4,W,,,NGSY,N,N,N,Y,N,N
447,5S8,50681.11*A,AIRPORT,PU,AAL,NONE,ST MICHAEL,NOME,AK,ST MICHAEL,PU,-162.110000,63.490000,93,BETHEL,2,W,08/1995,,NGY,,,,,N,N
448,SNP,50682.*A,AIRPORT,PU,AAL,NONE,ST PAUL ISLAND,BETHEL,AK,ST PAUL ISLAND,PU,-170.220000,57.160000,63,GNC 6,3,NE,,AS 06/1989,N1,N,N,N,Y,N,N
449,Z81,50683.*A,AIRPORT,PU,AAL,NONE,SALMON LAKE,NOME,AK,SALMON LAKE,PU,-165.010000,64.900000,490,NOME,0,NW,,,,N,N,N,N,N,N
450,SDP,50684.4*A,AIRPORT,PU,AAL,NONE,SAND POINT,ALEUTIAN ISLANDS,AK,SAND POINT,PU,-160.510000,55.310000,21,COLD BAY,2,SW,,AS 05/1973,NGSY,N,N,N,Y,N,N
451,WSJ,50684.8*C,SEAPLANE BASE,PU,AAL,NONE,SAN JUAN,KODIAK,AK,SAN JUAN /UGANIK/,PR,-153.320000,57.730000,0,KODIAK,0,W,,,N,N,N,N,N,N,N
452,SVA,50687.*A,AIRPORT,PU,AAL,NONE,SAVOONGA,NOME,AK,SAVOONGA,PU,-170.490000,63.680000,53,BETHEL,2,S,,,NGY,N,N,N,Y,N,N
453,SCM,50690.*A,AIRPORT,PU,AAL,NONE,SCAMMON BAY,WADE HAMPTON,AK,SCAMMON BAY,PU,-165.570000,61.840000,14,BETHEL,0,N,,,NGY,N,N,N,Y,N,N
454,WLK,50692.*A,AIRPORT,PU,AAL,NONE,SELAWIK,KOBUK,AK,SELAWIK,PU,-159.980000,66.600000,25,NOME,0,E,,,NGY,N,N,N,Y,N,N
455,91A,50692.1*A,AIRPORT,PR,AAL,NONE,SELAWIK,NORTHWEST ARCTIC,AK,ROLAND NORTON MEMORIAL AIRSTRIP,PR,-160.150000,66.760000,360,NOME,12,S,02/1985,,,,,,,N,N
456,SOV,50693.*A,AIRPORT,PU,AAL,NONE,SELDOVIA,KENAI-COOK INLET,AK,SELDOVIA,PU,-151.700000,59.440000,29,KODIAK,1,E,,,NGY,N,N,N,Y,N,N
457,A27,50693.1*C,SEAPLANE BASE,PU,AAL,NONE,SELDOVIA,KENAI-COOK INLET,AK,SELDOVIA,PU,-151.700000,59.430000,0,KODIAK,0,S,,,1,N,N,N,N,N,N
458,SWD,50696.*A,AIRPORT,PU,AAL,NONE,SEWARD,SEWARD,AK,SEWARD,PU,-149.410000,60.120000,22,SEWARD,2,NE,,,NGSY,N,N,N,Y,N,N
459,01AK,50696.01*H,HELIPORT,PR,AAL,NONE,SEWARD,SEWARD,AK,PROVIDENCE SEWARD MEDICAL CENTER,PR,-149.440000,60.100000,120,ANCHORAGE,1,SW,02/2000,,,,,,,N,N
460,SHX,50696.7*A,AIRPORT,PU,AAL,NONE,SHAGELUK,KUSKOKWIM,AK,SHAGELUK,PU,-159.560000,62.690000,70,MC GRATH,1,N,,,N,N,N,N,Y,N,N
461,38A,50697.01*A,AIRPORT,PU,AAL,NONE,SHAKTOOLIK,NOME,AK,SHAKTOOLIK/NEW,PU,-161.200000,64.360000,15,NOME,3,NW,,,N,,,,Y,N,N
462,SMU,50698.*A,AIRPORT,PU,AAL,NONE,SHEEP MOUNTAIN,VALDEZ-CHITNA-WHITIE,AK,SHEEP MOUNTAIN,PU,-147.500000,61.810000,2750,ANCHORAGE,0,W,,,,N,N,N,Y,N,N
463,SXP,50698.71*A,AIRPORT,PU,AAL,NONE,SHELDON POINT,WADE HAMPTON,AK,SHELDON POINT,PU,-164.840000,62.520000,12,BETHEL,0,NE,,,N,N,N,N,,N,N
464,SYA,50699.*A,AIRPORT,PR,AAL,NONE,SHEMYA,ALEUTIAN ISLANDS,AK,EARECKSON AS,MA,174.110000,52.710000,97,W ALEUTIAN ISLS,0,S,,AS 05/1973,,N,N,N,Y,N,N
465,1AK6,50699.5*A,AIRPORT,PR,AAL,NONE,SKETNA,MATANUSKA SUSITNA,AK,TALACHULITNA RIVER,PR,-151.160000,61.970000,365,ANCHORAGE,10,S,,,,,,,,N,N
466,SHH,50701.01*A,AIRPORT,PU,AAL,NONE,SHISHMAREF,NOME,AK,SHISHMAREF/NEW,PU,-166.080000,66.240000,10,NOME,1,S,02/1988,,NGSY,,,,Y,N,N
467,SHG,50702.1*A,AIRPORT,PU,AAL,NONE,SHUNGNAK,KOBUK,AK,SHUNGNAK,PU,-157.150000,66.880000,200,FAIRBANKS,0,NW,,,N,N,N,N,Y,N,N
468,SIT,50703.*A,AIRPORT,PU,AAL,NONE,SITKA,SITKA,AK,SITKA ROCKY GUTIERREZ,PU,-135.360000,57.040000,21,JUNEAU,0,W,,BS 05/1973,NGPY,N,Y,N,Y,N,Y
469,A29,50703.2*C,SEAPLANE BASE,PU,AAL,NONE,SITKA,SITKA,AK,SITKA,PU,-135.340000,57.050000,0,JUNEAU,0,NW,,,NGY,N,N,N,Y,N,N
470,SGY,50704.*A,AIRPORT,PU,AAL,NONE,SKAGWAY,SKAGWAY-YAKUTAT,AK,SKAGWAY,PU,-135.310000,59.460000,44,JUNEAU,0,NW,,,N1,N,Y,N,Y,N,N
471,7K2,50704.1*C,SEAPLANE BASE,PU,AAL,NONE,SKAGWAY,SKAGWAY-YAKUTAT,AK,SKAGWAY,PU,-135.320000,59.440000,0,JUNEAU,0,S,,,,N,N,N,N,N,N
472,3K0,50705.*H,HELIPORT,PU,AAL,NONE,SKILAK GUARD STATION,KENAI-COOK INLET,AK,SKILAK BLM HELISTOP,PU,-150.450000,60.480000,275,ANCHORAGE,0,S,,,,N,N,N,N,N,N
473,SKW,50708.*A,AIRPORT,PU,AAL,NONE,SKWENTNA,MATA-SUS BOROUGH,AK,SKWENTNA,PU,-151.190000,61.960000,148,ANCHORAGE,0,NW,,,NGY,N,N,N,Y,N,N
474,DDT,50709.*A,AIRPORT,PR,AAL,NONE,SLANA,VALDEZ-CHITNA-WHITIE,AK,DUFFYS TAVERN,PR,-143.920000,62.720000,2420,ANCHORAGE,2,NE,,,,N,N,N,N,N,N
475,SLQ,50711.*A,AIRPORT,PU,AAL,NONE,SLEETMUTE,KUSKOKWIM,AK,SLEETMUTE,PU,-157.150000,61.700000,178,MC GRATH,0,E,,,N,N,N,N,Y,N,N
476,7AK2,50711.6*A,AIRPORT,PR,AAL,NONE,SNETTISHAM,JUNEAU,AK,SNETTISHAM,PU,-133.720000,58.130000,14,JUNEAU,0,NE,,,,N,N,N,N,N,N
477,1AK4,50713.1*A,AIRPORT,PR,AAL,NONE,SOLDOTNA,KENAI-COOK INLET,AK,ROTOR AIR,PR,-150.750000,60.520000,200,ANCHORAGE,11,NE,,,,N,N,N,N,N,N
478,7AK3,50713.11*A,AIRPORT,PR,AAL,NONE,SOLDOTNA,KENAI-COOK INLET,AK,GAEDE,PR,-151.160000,60.470000,115,ANCHORAGE,4,SW,,,,N,N,N,N,N,N
479,7AK5,50713.13*A,AIRPORT,PR,AAL,NONE,SOLDOTNA,KENAI-COOK INLET,AK,DAHLER HOMESTEAD,PR,-150.930000,60.500000,300,ANCHORAGE,4,NE,,,,N,N,N,N,N,N
480,7AK6,50713.14*A,AIRPORT,PR,AAL,NONE,SOLDOTNA,KENAI-COOK INLET,AK,DAN FRANCE,PR,-150.920000,60.470000,260,ANCHORAGE,4,E,,,,N,N,N,N,N,N
481,SD1,50713.19*H,HELIPORT,PU,AAL,NONE,SOLDOTNA,KENAI-COOK INLET,AK,SOLDOTNA HOSPITAL H,PR,-151.070000,60.490000,95,ANCHORAGE,1,NW,,,,N,N,N,N,N,N
482,SXQ,50713.2*A,AIRPORT,PU,AAL,NONE,SOLDOTNA,KENAI-COOK INLET,AK,SOLDOTNA,PU,-151.030000,60.470000,108,ANCHORAGE,1,SE,,,NGSY,N,N,N,Y,N,N
483,L85,50713.21*C,SEAPLANE BASE,PU,AAL,NONE,SOLDOTNA,KENAI-COOK INLET,AK,MACKEYS LAKES,PU,-150.990000,60.530000,175,ANCHORAGE,3,NE,,,,N,N,N,N,N,N
484,AK26,50714.2*A,AIRPORT,PR,AAL,NONE,SOLOMON,NOME,AK,SOLOMON STATE FIELD,PR,-164.440000,64.560000,25,NOME,0,N,,,N,N,N,N,N,N,N
485,3AK,50714.43*A,AIRPORT,PU,AAL,NONE,SOUTH NAKNEK,BRISTOL BAY,AK,PAF CANNERY,PR,-156.940000,58.720000,60,KODIAK,3,SE,,,,N,N,N,N,N,N
486,8AK0,50714.44*A,AIRPORT,PR,AAL,NONE,SOUTH NAKNEK,BRISTOL BAY,AK,DIAMOND NN CANNERY,PR,-156.990000,58.710000,60,KODIAK,2,S,,,,N,N,N,N,N,N
487,WSN,50714.45*A,AIRPORT,PU,AAL,NONE,SOUTH NAKNEK,BRISTOL BAY,AK,SOUTH NAKNEK NR 2,PU,-157.000000,58.700000,130,KODIAK,1,SW,,,NGSY,N,N,N,Y,N,N
488,SVW,50714.6*A,AIRPORT,PR,AAL,NONE,SPARREVOHN,KUSKOKWIM,AK,SPARREVOHN LRRS,MR,-155.570000,61.090000,1583,MC GRATH,0,S,,LU 08/1976,,N,N,N,,N,N
489,36H,50717.1*C,SEAPLANE BASE,PU,AAL,NONE,SQUAW HARBOR,ALEUTIAN ISLANDS,AK,SQUAW HARBOR,PU,-160.550000,55.230000,0,COLD BAY,0,S,,,,N,N,N,N,N,N
490,WSB,50719.*C,SEAPLANE BASE,PU,AAL,NONE,STEAMBOAT BAY,PRINCE OF WALES,AK,STEAMBOAT BAY,PR,-133.640000,55.520000,0,KETCHIKAN,0,NE,,,,N,N,N,N,N,N
491,WBB,50719.4*A,AIRPORT,PU,AAL,NONE,STEBBINS,NOME,AK,STEBBINS,PU,-162.280000,63.510000,16,BETHEL,0,NW,,,N,,,,Y,N,N
492,88AK,50720.*A,AIRPORT,PR,AAL,NONE,STERLING,KENAI PENINSULA,AK,DUTCH LANDING STRIP,PR,-150.860000,60.540000,300,ANCHORAGE,0,N,02/2000,,,,,,,N,N
493,40AK,50720.01*A,AIRPORT,PR,AAL,NONE,STERLING,KENAI PENINSULA,AK,STERLING AIR PARK,PR,-150.840000,60.550000,90,ANCHORAGE,3,NE,02/2000,,,,,,,N,N
494,8AK4,50720.03*C,SEAPLANE BASE,PR,AAL,NONE,STERLING,KENAI-COOK INLET,AK,SCOUT LAKE,PR,-150.850000,60.530000,245,ANCHORAGE,3,W,,,,N,N,N,N,N,N
495,53AK,50720.04*A,AIRPORT,PR,AAL,NONE,STERLING,KENAI PENINSULA,AK,LAKEWOOD AIRSTRIP,PR,-150.930000,60.530000,110,ANCHORAGE,5,NE,02/2000,,,,,,,N,N
496,AK39,50720.2*A,AIRPORT,PR,AAL,NONE,STERLING,KENAI-COOK INLET,AK,SOUTH GASLINE,PR,-150.170000,60.690000,381,ANCHORAGE,19,NE,,,,N,N,N,N,N,N
497,SVS,50721.*A,AIRPORT,PU,AAL,NONE,STEVENS VILLAGE,UPPER YUKON,AK,STEVENS VILLAGE,PU,-149.090000,66.000000,310,FAIRBANKS,0,N,,,N,N,N,N,N,N,N
498,SRV,50722.01*A,AIRPORT,PU,AAL,NONE,STONY RIVER,KUSKOKWIM,AK,STONY RIVER 2,PU,-156.580000,61.780000,230,MC GRATH,0,N,,,N,N,N,N,Y,N,N
499,UMM,50725.*A,AIRPORT,PU,AAL,NONE,SUMMIT,MATA-SUS BOROUGH,AK,SUMMIT,PU,-149.120000,63.330000,2409,ANCHORAGE,0,N,,,,N,N,N,Y,N,N
500,8AK6,50729.*A,AIRPORT,PR,AAL,NONE,SUSITNA STATION,MATA-SUS BOROUGH,AK,LITTLE SUSITNA,PR,-150.260000,61.370000,70,ANCHORAGE,0,NE,,,,N,N,N,N,N,N
501,JVM,50730.*A,AIRPORT,PU,AAL,NONE,SUTTON,MATA-SUS BOROUGH,AK,JONESVILLE MINE,PR,-148.920000,61.730000,870,ANCHORAGE,2,NW,,,,N,N,N,N,N,N
502,28AK,50730.01*A,AIRPORT,PR,AAL,NONE,SUTTON,MATA-SUS BOROUGH,AK,FARRARS,PR,-147.850000,61.800000,1875,ANCHORAGE,31,E,,,,,,,,N,N
503,48AK,50730.1*A,AIRPORT,PR,AAL,NONE,SUTTON/CHICKALOON,MATA-SUS BOROUGH,AK,GRAHAM,PR,-148.490000,61.790000,1010,ANCHORAGE,3,E,04/1988,,,,,,,N,N
504,HNE,50734.*A,AIRPORT,PU,AAL,NONE,TAHNETA PASS LODGE,MATA-SUS BOROUGH,AK,TAHNETA PASS,PR,-147.300000,61.900000,2960,ANCHORAGE,0,SE,,,,N,N,N,N,N,N
505,TCT,50735.*A,AIRPORT,PU,AAL,NONE,TAKOTNA,KUSKOKWIM,AK,TAKOTNA,PU,-156.060000,62.990000,825,MC GRATH,0,N,,,N,N,N,N,Y,N,N
506,TLJ,50736.*A,AIRPORT,PR,AAL,NONE,TAKOTNA,KUSKOKWIM,AK,TATALINA LRRS,MA,-155.970000,62.890000,964,MC GRATH,7,S,,LU 08/1976,,N,N,N,,N,N
507,A43,50736.4*C,SEAPLANE BASE,PU,AAL,NONE,TAKU HARBOR,JUNEAU,AK,TAKU HARBOR,PU,-134.010000,58.060000,0,JUNEAU,0,N,,,,N,N,N,N,N,N
508,TKL,50736.7*C,SEAPLANE BASE,PU,AAL,NONE,TAKU LODGE,JUNEAU,AK,TAKU LODGE,PR,-133.940000,58.480000,0,JUNEAU,0,E,,,,N,N,N,N,N,N
509,TKA,50738.*A,AIRPORT,PU,AAL,NONE,TALKEETNA,MATA-SUS BOROUGH,AK,TALKEETNA,PU,-150.090000,62.320000,358,ANCHORAGE,1,E,,,NGPY,N,N,N,Y,N,N
510,21AK,50738.06*A,AIRPORT,PR,AAL,NONE,TALKEETNA,MATA-SUS BOROUGH,AK,MONTANA CREEK,PR,-150.060000,62.070000,250,ANCHORAGE,15,S,,,,,,,,N,N
511,49AK,50738.1*A,AIRPORT,PR,AAL,NONE,TALKEETNA,MATA-SUS BOROUGH,AK,SECLUDED LAKE,PR,-149.970000,62.020000,300,ANCHORAGE,20,S,04/1988,,,,,,,N,N
512,AK44,50739.*A,AIRPORT,PR,AAL,NONE,TALKEETNA,MATA-SUS BOROUGH,AK,TALKEETNA VILLAGE STRIP,PU,-150.110000,62.310000,346,ANCHORAGE,1,S,,,,N,N,N,N,N,N
513,TSG,50742.*A,AIRPORT,PU,AAL,NONE,TANACROSS,FAIRBANKS,AK,TANACROSS,PU,-143.330000,63.370000,1549,ANCHORAGE,1,S,,,N,N,N,N,Y,N,N
514,TAL,50746.*A,AIRPORT,PU,AAL,NONE,TANANA,YUKON-KOYUKUK,AK,RALPH M CALHOUN MEML,PU,-152.100000,65.170000,227,FAIRBANKS,1,W,,,NPY,N,N,N,Y,N,N
515,7KA,50749.1*A,AIRPORT,PU,AAL,NONE,TATITLEK,VALDEZ-CHITNA-WHITIE,AK,TATITLEK,PU,-146.680000,60.860000,25,ANCHORAGE,0,NW,,,NGY,N,N,,Y,N,N
516,8KA,50750.*A,AIRPORT,PU,AAL,NONE,TATITNA,KUSKOKWIM,AK,TATITNA,PU,-153.360000,62.290000,1490,MC GRATH,1,S,,,,N,N,N,N,N,N
517,AK49,50752.*A,AIRPORT,PR,AAL,NONE,TAYLOR,NOME,AK,TAYLOR,PR,-164.790000,65.670000,440,NOME,3,SE,,,,N,N,N,N,N,N
518,AK64,50753.*A,AIRPORT,PR,AAL,NONE,TAYLOR MOUNTAIN MINE,KUSKOKWIM,AK,TAYLOR MOUNTAIN,PU,-157.390000,60.860000,1000,MC GRATH,0,N,08/1995,,,,,,,N,N
519,Z14,50754.*A,AIRPORT,PU,AAL,NONE,TAZLINA,VALDEZ-CHITNA-WHITIE,AK,TAZLINA,PU,-146.460000,62.060000,2450,ANCHORAGE,0,SE,,,,N,N,N,Y,N,N
520,5AK,50754.1*C,SEAPLANE BASE,PU,AAL,NONE,TAZLINA,VALDEZ-CHITNA-WHITIE,AK,TAZLINA /SMOKEY LAKE/,PR,-146.440000,62.060000,2407,ANCHORAGE,0,E,,,,N,N,N,N,N,N
521,2K5,50755.*A,AIRPORT,PU,AAL,NONE,TELIDA,KUSKOKWIM,AK,TELIDA,PU,-153.260000,63.390000,650,MC GRATH,0,S,,,N,N,N,N,N,N,N
522,K54,50756.1*A,AIRPORT,PU,AAL,NONE,TELLER,NOME,AK,TELLER,PU,-166.330000,65.240000,293,NOME,2,S,,,NGY,N,N,N,Y,N,N
523,TKE,50757.8*C,SEAPLANE BASE,PU,AAL,NONE,TENAKEE SPRINGS,SITKA,AK,TENAKEE,PU,-135.210000,57.770000,0,JUNEAU,0,N,,,NY1,N,N,N,Y,N,N
524,5TE,50759.*A,AIRPORT,PR,AAL,NONE,TETLIN,FAIRBANKS,AK,TETLIN,PU,-142.520000,63.130000,1625,ANCHORAGE,0,S,,,N,N,N,N,N,N,N
525,K55,50759.3*A,AIRPORT,PU,AAL,NONE,THOMPSON PASS,VALDEZ-CHITNA-WHITIE,AK,THOMPSON PASS,PU,-145.680000,61.170000,2080,ANCHORAGE,20,E,,,,N,N,N,Y,N,N
526,KTB,50759.36*C,SEAPLANE BASE,PU,AAL,NONE,THORNE BAY,PRINCE OF WALES,AK,THORNE BAY,PU,-132.530000,55.680000,0,KETCHIKAN,0,NW,,,,N,N,N,N,N,N
527,AK56,50759.45*C,SEAPLANE BASE,PR,AAL,NONE,TIKCHIK,BRISTOL BAY,AK,TIKCHIK LODGE,PU,-158.470000,59.960000,304,KODIAK,0,S,,,,N,N,N,N,N,N
528,TNC,50760.*A,AIRPORT,PR,AAL,NONE,TIN CITY,NOME,AK,TIN CITY LRRS,MR,-167.920000,65.560000,269,NOME,1,E,,LU 08/1976,,N,N,N,Y,N,N
529,TOG,50764.4*A,AIRPORT,PU,AAL,NONE,TOGIAK VILLAGE,BETHEL,AK,TOGIAK,PU,-160.390000,59.050000,21,KODIAK,0,SW,,,N,N,N,N,Y,N,N
530,TKJ,50764.7*A,AIRPORT,PU,AAL,NONE,TOK,FAIRBANKS,AK,TOK,PU,-143.000000,63.290000,1670,ANCHORAGE,2,S,,,,N,N,N,N,N,N
531,8AK9,50764.71*A,AIRPORT,PR,AAL,NONE,TOK,FAIRBANKS,AK,TOK 2,PR,-143.020000,63.290000,1630,ANCHORAGE,2,S,,,NGY,N,N,N,N,N,N
532,9AK0,50764.711*A,AIRPORT,PR,AAL,NONE,TOK,FAIRBANKS,AK,SPORTS MANS PARADISE,PR,-143.230000,62.510000,3120,ANCHORAGE,57,S,,,,N,N,,,N,N
533,6K8,50764.72*A,AIRPORT,PU,AAL,NONE,TOK,VALDEZ-CHITNA-WHITIE,AK,TOK JUNCTION,PU,-142.950000,63.320000,1630,ANCHORAGE,1,E,,,,,,,Y,N,N
534,57A,50764.75*C,SEAPLANE BASE,PU,AAL,NONE,TOKEEN,PRINCE OF WALES,AK,TOKEEN,PR,-133.320000,55.930000,0,KETCHIKAN,0,W,,,,N,N,N,N,N,N
535,OOK,50766.4*A,AIRPORT,PU,AAL,NONE,TOKSOOK BAY,WADE HAMPTON,AK,TOKSOOK BAY,PU,-165.110000,60.530000,95,BETHEL,0,W,,,N,N,N,N,Y,N,N
536,58A,50767.3*C,SEAPLANE BASE,PU,AAL,NONE,TOLSONA LAKE,VALDEZ-CHITNA-WHITIE,AK,TOLSONA LAKE,PU,-146.040000,62.110000,2000,ANCHORAGE,0,N,,,,N,N,N,N,N,N
537,9AK,50769.2*A,AIRPORT,PU,AAL,NONE,TOTATLANIKA RIVER,YUKON-KOYUKUK,AK,TOTATLANIKA RIVER,PU,-148.520000,64.020000,2717,FAIRBANKS,2,SW,,,,N,N,N,N,N,N
538,5AK0,50769.3*A,AIRPORT,PR,AAL,NONE,TRADING BAY,KENAI-COOK INLET,AK,TRADING BAY PRODUCTION,PR,-151.790000,60.810000,200,MC GRATH,0,,,,,N,N,N,N,N,N
539,61AK,50769.9*H,HELIPORT,PR,AAL,NONE,TRAPPER CREEK/TALKEETNA,MATA-SUS BOROUGH,AK,ERA CHULITNA RIVER,PR,-150.230000,62.560000,960,ANCHORAGE,19,N,03/2000,,,,,,,N,N
540,TLT,50771.*A,AIRPORT,PU,AAL,NONE,TULUKSAK,BETHEL,AK,TULUKSAK,PU,-160.960000,61.090000,30,MC GRATH,0,W,,,NS1,N,N,N,Y,N,N
541,Z20,50772.4*C,SEAPLANE BASE,PU,AAL,NONE,TUNTUTULIAK,BETHEL,AK,TUNTUTULIAK,PU,-162.660000,60.340000,15,BETHEL,0,E,,,,N,N,N,N,N,N
542,A61,50772.6*A,AIRPORT,PU,AAL,NONE,TUNTUTULIAK,BETHEL,AK,TUNTUTULIAK,PU,-162.660000,60.330000,16,BETHEL,1,S,,,NGY,N,N,,Y,N,N
543,4KA,50773.*A,AIRPORT,PU,AAL,NONE,TUNUNAK,BETHEL,AK,TUNUNAK,PU,-165.270000,60.570000,17,BETHEL,1,SW,,,N,N,N,N,Y,N,N
544,AK62,50773.5*C,SEAPLANE BASE,PU,AAL,NONE,TUXEKAN ISLAND,KETCHIKAN,AK,NICHIN COVE,PU,-133.220000,55.840000,0,KETCHIKAN,0,N,,,,N,N,N,N,N,N
545,A63,50776.*A,AIRPORT,PU,AAL,NONE,TWIN HILLS,BETHEL,AK,TWIN HILLS,PU,-160.270000,59.070000,82,KODIAK,0,E,,,N,N,N,N,Y,N,N
546,TYE,50788.*A,AIRPORT,PR,AAL,NONE,TYONEK,KENAI-COOK INLET,AK,TYONEK,PR,-151.130000,61.070000,110,ANCHORAGE,1,NE,,,N,N,N,N,N,N,N
547,9AK3,50788.1*A,AIRPORT,PR,AAL,NONE,TYONEK,KENAI-COOK INLET,AK,NIKOLAI CREEK,PR,-151.440000,61.010000,30,ANCHORAGE,10,SW,,,,N,N,N,N,N,N
548,9A8,50790.1*A,AIRPORT,PU,AAL,NONE,UGASHIK,KODIAK,AK,UGASHIK/NEW,PU,-157.390000,57.520000,25,KODIAK,1,N,,,N,,,,Y,N,N
549,UMT,50795.*A,AIRPORT,PU,AAL,NONE,UMIAT,BARROW,AK,UMIAT,PU,-152.130000,69.370000,266,POINT BARROW,0,N,,,,N,N,N,N,N,N
550,UNK,50799.*A,AIRPORT,PU,AAL,NONE,UNALAKLEET,NOME,AK,UNALAKLEET,PU,-160.790000,63.880000,21,MC GRATH,1,N,,,N,N,N,N,Y,N,N
551,DUT,50801.*A,AIRPORT,PU,AAL,NONE,UNALASKA,ALEUTIAN ISLANDS,AK,UNALASKA,PU,-166.540000,53.900000,22,DUTCH HARBOR,1,N,,AS 05/1973,NGY,N,N,N,Y,N,N
552,UTO,50822.*A,AIRPORT,PR,AAL,NONE,UTOPIA CREEK,YUKON-KOYUKUK,AK,INDIAN MOUNTAIN LRRS,MA,-153.700000,65.990000,1220,FAIRBANKS,0,S,,LU 08/1976,,N,N,N,,N,N
553,VDZ,50825.1*A,AIRPORT,PU,AAL,NONE,VALDEZ,VALDEZ-CHITNA-WHITIE,AK,VALDEZ,PU,-146.240000,61.130000,120,ANCHORAGE,3,E,,AS 02/1977,NGY,N,Y,N,Y,N,N
554,VEE,50828.*A,AIRPORT,PU,AAL,NONE,VENETIE,UPPER YUKON,AK,VENETIE,PR,-146.410000,67.020000,550,FAIRBANKS,0,NE,,,N,N,N,N,N,N,N
555,0AK6,50829.7*A,AIRPORT,PR,AAL,NONE,VICTORY BIBLE CAMP,MATA-SUS BOROUGH,AK,VICTORY,PR,-147.940000,61.800000,1800,ANCHORAGE,0,N,,,,N,N,N,N,N,N
556,AK03,50855.1*A,AIRPORT,PR,AAL,NONE,WAINWRIGHT,BARROW,AK,WAINWRIGHT AS,MR,-159.860000,70.610000,35,CAPE LISBURNE,0,N,,,,N,N,N,Y,N,N
557,AWI,50855.2*A,AIRPORT,PU,AAL,NONE,WAINWRIGHT,BARROW,AK,WAINWRIGHT,PU,-159.990000,70.630000,41,CAPE LISBURNE,0,S,,,NY1,N,N,N,Y,N,N
558,IWK,50860.*A,AIRPORT,PU,AAL,NONE,WALES,NOME,AK,WALES,PU,-168.090000,65.620000,25,NOME,1,NW,,,NGY,N,N,N,N,N,N
559,AK83,50870.11*A,AIRPORT,PR,AAL,NONE,WASILLA,MATA-SUS BOROUGH,AK,GANNON'S LANDING,PR,-149.600000,61.620000,380,ANCHORAGE,6,W,08/1997,,,,,,,N,N
560,7AK8,50870.12*A,AIRPORT,PR,AAL,NONE,WASILLA,MATA-SUS BOROUGH,AK,HESS,PR,-149.610000,61.620000,355,ANCHORAGE,5,NW,,,,,,,,N,N
561,AK25,50870.13*A,AIRPORT,PR,AAL,NONE,WASILLA,MATA-SUS BOROUGH,AK,PIPER LANDING,PR,-149.610000,61.610000,350,ANCHORAGE,5,NW,08/1997,,,,,,,N,N
562,Z96,50870.14*A,AIRPORT,PU,AAL,NONE,WASILLA,MATA-SUS BOROUGH,AK,PHILOS,PR,-149.310000,61.560000,180,ANCHORAGE,3,W,,,,,,,,N,N
563,A89,50870.15*A,AIRPORT,PU,AAL,NONE,WASILLA,MATANUSKA SUSITNA,AK,SETTLERS BAY AIRSTRIP,PR,-149.610000,61.490000,180,ANCHORAGE,6,S,,,,N,N,,,N,N
564,5AK8,50870.16*A,AIRPORT,PR,AAL,NONE,WASILLA,MATANUSKA SUSITNA,AK,MEMORY LAKE,PR,-149.430000,61.630000,420,ANCHORAGE,3,N,,,,N,N,,,N,N
565,7AK4,50870.17*A,AIRPORT,PR,AAL,NONE,WASILLA,MATANUSKA SUSITNA,AK,JACK FISH LANDING,PR,-149.450000,61.530000,150,ANCHORAGE,3,S,,,,,,,,N,N
566,T66,50870.18*C,SEAPLANE BASE,PU,AAL,NONE,WASILLA,MATA-SUS BOROUGH,AK,VISNAW LAKE,PR,-149.670000,61.620000,300,ANCHORAGE,7,NW,,,,,,,,N,N
567,44AK,50870.19*A,AIRPORT,PR,AAL,NONE,WASILLA,MATA-SUS BOROUGH,AK,WEST PAPOOSE LAKE AIRPARK,PR,-150.100000,60.530000,250,ANCHORAGE,5,W,01/1988,,,,,,,N,N
568,5L6,50870.2*C,SEAPLANE BASE,PU,AAL,NONE,WASILLA,MATANUSKA SUSITNA,AK,WASILLA LAKE,PU,-149.400000,61.580000,330,ANCHORAGE,1,E,,,,N,N,N,N,N,N
569,42AK,50870.21*A,AIRPORT,PR,AAL,NONE,WASILLA,MATA-SUS BOROUGH,AK,WICKER,PR,-149.480000,61.560000,314,ANCHORAGE,2,SW,01/1988,,,,,,,N,N
570,3AK8,50870.22*A,AIRPORT,PR,AAL,NONE,WASILLA,MATANUSKA SUSITNA,AK,BOISSELLE'S STRIP,PR,-149.390000,61.660000,400,ANCHORAGE,10,N,,,,,,,,N,N
571,43AK,50870.23*A,AIRPORT,PR,AAL,NONE,WASILLA,MATA-SUS BOROUGH,AK,KALMBACH,PR,-149.570000,61.600000,445,ANCHORAGE,5,NW,01/1988,,,,,,,N,N
572,0AK1,50870.24*A,AIRPORT,PR,AAL,NONE,WASILLA,MATA-SUS BOROUGH,AK,ANDERSON LAKE STRIP,PR,-149.310000,61.610000,463,ANCHORAGE,4,NE,04/1988,,,,,,,N,N
573,71AK,50870.25*A,AIRPORT,PR,AAL,NONE,WASILLA,MATANUSKA SUSITNA,AK,BLUFF PARK FARM,PR,-149.490000,61.520000,110,ANCHORAGE,4,NE,03/2000,,,,,,,N,N
574,16AK,50870.26*A,AIRPORT,PR,AAL,NONE,WASILLA,ALEUTIAN ISLANDS,AK,GATTIS STRIP,PR,-149.340000,61.590000,320,ANCHORAGE,3,NE,03/2000,,,,,,,N,N
575,89AK,50870.27*A,AIRPORT,PR,AAL,NONE,WASILLA,MATA-SUS BOROUGH,AK,LINCOLN VILLAGE AIRPARK,PR,-149.700000,61.550000,250,ANCHORAGE,8,SW,03/2000,,,,,,,N,N
576,AK65,50870.28*A,AIRPORT,PR,AAL,NONE,WASILLA,MATANUSKA SUSITNA,AK,GREEN'S STRIP,PR,-149.360000,61.600000,300,ANCHORAGE,3,NE,04/2000,,,,,,,N,N
577,10AK,50870.29*A,AIRPORT,PR,AAL,NONE,WASILLA,MATA-SUS BOROUGH,AK,HUNT STRIP,PR,-149.670000,61.590000,200,ANCHORAGE,10,W,03/2000,,,,,,,N,N
578,IYS,50870.3*A,AIRPORT,PU,AAL,NONE,WASILLA,MATA-SUS BOROUGH,AK,WASILLA,PU,-149.540000,61.570000,348,ANCHORAGE,3,SW,05/1992,,NGY,,,,,N,N
579,87AK,50870.31*A,AIRPORT,PR,AAL,NONE,WASILLA,MATANUSKA SUSITNA,AK,SOLOY STRIP,PR,-149.280000,61.650000,545,ANCHORAGE,10,NE,03/2000,,,,,,,N,N
580,95AK,50870.32*H,HELIPORT,PR,AAL,NONE,WASILLA,MATA-SUS BOROUGH,AK,MEDIVAC - WASILLA,PR,-149.420000,61.580000,340,ANCHORAGE,0,N,03/2000,,,,,,,N,N
581,KWF,50872.*C,SEAPLANE BASE,PU,AAL,NONE,WATERFALL,PRINCE OF WALES,AK,WATERFALL,PR,-133.240000,55.290000,0,KETCHIKAN,0,SW,,,,N,N,N,N,N,N
582,KWP,50873.3*C,SEAPLANE BASE,PU,AAL,NONE,WEST POINT,KODIAK,AK,WEST POINT VILLAGE,PR,-153.540000,57.770000,0,KODIAK,0,E,,,N,N,N,N,N,N,N
583,WMO,50874.*A,AIRPORT,PU,AAL,NONE,WHITE MOUNTAIN,NOME,AK,WHITE MOUNTAIN,PU,-163.410000,64.680000,261,NOME,1,N,,,N,N,N,N,Y,N,N
584,IEM,50875.*A,AIRPORT,PU,AAL,NONE,WHITTIER,VALDEZ-CHITNA-WHITIE,AK,WHITTIER,PU,-148.720000,60.770000,30,ANCHORAGE,1,NW,,,N,N,N,,Y,N,N
585,AK08,50877.*A,AIRPORT,PR,AAL,NONE,WILLOW,MATA-SUS BOROUGH,AK,THOMAS STRIP,PR,-150.100000,61.790000,190,ANCHORAGE,3,SE,08/1997,,,,,,,N,N
586,AK90,50877.2*A,AIRPORT,PR,AAL,NONE,WILLOW,MATANUSKA SUSITNA,AK,SHIRLEY LAKE,PR,-150.100000,61.730000,185,ANCHORAGE,2,S,,,,N,N,,,N,N
587,AK72,50877.21*A,AIRPORT,PR,AAL,NONE,WILLOW,MATA-SUS BOROUGH,AK,JEWELL,PR,-150.600000,61.700000,113,ANCHORAGE,15,W,11/1990,,,,,,,N,N
588,3AK7,50877.22*A,AIRPORT,PR,AAL,NONE,WILLOW,MATA-SUS BOROUGH,AK,LAUB,PR,-150.330000,61.760000,100,ANCHORAGE,9,N,,,,,,,,N,N
589,AK34,50877.24*C,SEAPLANE BASE,PR,AAL,NONE,WILLOW,MATA-SUS BOROUGH,AK,KASHWITNA LAKE,PR,-150.070000,61.830000,186,ANCHORAGE,6,N,03/1991,,,,,,,N,N
590,02AK,50877.25*A,AIRPORT,PR,AAL,NONE,WILLOW,MATA-SUS BOROUGH,AK,RUSTIC WILDERNESS,PR,-150.090000,61.870000,190,ANCHORAGE,7,S,,,,N,N,,,N,N
591,3AK1,50877.26*A,AIRPORT,PR,AAL,NONE,WILLOW,MATANUSKA SUSITNA,AK,DESHKA LANDING,PU,-150.190000,61.720000,110,ANCHORAGE,9,SW,,,,,,,,N,N
592,25AK,50877.27*A,AIRPORT,PR,AAL,NONE,WILLOW,MATA-SUS BOROUGH,AK,HONEYBEE LAKE AERO PARK,PR,-150.050000,61.710000,200,ANCHORAGE,1,N,03/2000,,,,,,,N,N
593,UUO,50878.*A,AIRPORT,PU,AAL,NONE,WILLOW,MATA-SUS BOROUGH,AK,WILLOW,PU,-150.050000,61.750000,221,ANCHORAGE,1,NW,,,NP,N,N,N,Y,N,N
594,WSM,50888.*A,AIRPORT,PU,AAL,NONE,WISEMAN,YUKON-KOYUKUK,AK,WISEMAN,PU,-150.120000,67.400000,1180,FAIRBANKS,1,SW,,,N,N,N,N,Y,N,N
595,68A,50905.*C,SEAPLANE BASE,PU,AAL,NONE,WRANGELL,WRANGELL-PETERSBURG,AK,WRANGELL,PU,-132.380000,56.460000,0,JUNEAU,0,S,,,NY1,Y,N,N,Y,N,N
596,WRG,50905.2*A,AIRPORT,PU,AAL,NONE,WRANGELL,WRANGELL-PETERSBURG,AK,WRANGELL,PU,-132.360000,56.480000,44,JUNEAU,1,NE,,AS 05/1973,NGY,N,Y,N,Y,N,Y
597,CYT,50916.*A,AIRPORT,PU,AAL,NONE,YAKATAGA,CORDOVA-MCCARTHY,AK,YAKATAGA,PU,-142.490000,60.080000,12,ANCHORAGE,0,S,,,,N,N,N,Y,N,N
598,YAK,50920.*A,AIRPORT,PU,AAL,NONE,YAKUTAT,SKAGWAY-YAKUTAT,AK,YAKUTAT,PU,-139.660000,59.500000,33,JUNEAU,3,SE,,AS 05/1973,NGPY,N,N,N,Y,N,Y
599,A67,50920.01*A,AIRPORT,PU,AAL,NONE,YAKUTAT,SKAGWAY-YAKUTAT,AK,HARLEQUIN LAKE,PU,-139.020000,59.410000,100,JUNEAU,19,E,,,,N,N,N,N,N,N
600,A68,50920.1*A,AIRPORT,PU,AAL,NONE,YAKUTAT,SKAGWAY-YAKUTAT,AK,SITUK,PU,-139.500000,59.550000,50,JUNEAU,7,NE,,,,N,N,N,N,N,N
601,A69,50920.11*A,AIRPORT,PU,AAL,NONE,YAKUTAT,SKAGWAY-YAKUTAT,AK,TANIS MESA,PU,-138.500000,59.240000,130,JUNEAU,42,E,,,,N,N,N,N,N,N
602,2Y3,50920.12*C,SEAPLANE BASE,PU,AAL,NONE,YAKUTAT,SKAGWAY-YAKUTAT,AK,YAKUTAT,PU,-139.740000,59.560000,0,JUNEAU,1,NW,,,,N,N,N,N,N,N
603,A70,50920.2*A,AIRPORT,PU,AAL,NONE,YAKUTAT,SKAGWAY-YAKUTAT,AK,DANGEROUS RIVER,PU,-139.190000,59.410000,50,JUNEAU,17,E,,,,N,N,N,N,N,N
604,A57,50920.31*A,AIRPORT,PU,AAL,NONE,YAKUTAT,SKAGWAY-YAKUTAT,AK,ALSEK RIVER,PU,-138.430000,59.180000,30,JUNEAU,44,SE,,,,N,N,N,N,N,N
605,AK76,50920.32*A,AIRPORT,PU,AAL,NONE,YAKUTAT,SKAGWAY-YAKUTAT,AK,EAST ALSEK RIVER,PU,-138.400000,59.120000,20,JUNEAU,49,SE,,,,N,N,N,N,N,N
606,A77,50925.1*A,AIRPORT,PU,AAL,NONE,YANKEE CREEK,KUSKOKWIM,AK,YANKEE CREEK 2,PR,-156.360000,63.000000,1120,MC GRATH,1,S,,,,N,N,N,N,N,N
607,78K,50928.*C,SEAPLANE BASE,PU,AAL,NONE,YES BAY,KETCHIKAN,AK,YES BAY LODGE,PR,-131.800000,55.910000,0,KETCHIKAN,0,N,,,N,N,N,N,N,N,N
608,L20,50990.*A,AIRPORT,PU,AAL,NONE,YUKON CHARLEY RIVERS,UPPER YUKON,AK,COAL CREEK,PU,-143.130000,65.310000,850,DAWSON,1,W,,,,,,,,N,N
609,0J0,00103.*A,AIRPORT,PU,ASO,JAN,ABBEVILLE,HENRY,AL,ABBEVILLE MUNI,PU,-85.230000,31.600000,468,NEW ORLEANS,3,N,,,,,,,,N,N
610,2A8,00106.*A,AIRPORT,PU,ASO,JAN,ADDISON,WINSTON,AL,ADDISON MUNICIPAL,PU,-87.150000,34.200000,786,ATLANTA,1,NE,12/1986,,,,,,,N,N
611,EET,00110.*A,AIRPORT,PU,ASO,JAN,ALABASTER,SHELBY,AL,SHELBY COUNTY,PU,-86.780000,33.170000,584,ATLANTA,4,SE,,,NGY,N,N,N,Y,N,N
612,AL39,00110.01*H,HELIPORT,PR,ASO,JAN,ALABASTER,SHELBY,AL,SHELBY MEDICAL CENTER,PR,-86.810000,33.250000,510,ATLANTA,0,NE,08/1982,,,,,,,N,N
613,8A0,00112.1*A,AIRPORT,PU,ASO,JAN,ALBERTVILLE,MARSHALL,AL,THE ALBERTVILLE MUNI-THOMAS J BRUMLIK FLD,PU,-86.250000,34.220000,1032,ATLANTA,3,SW,,,NGY,N,N,N,N,N,N
614,ALX,00116.*A,AIRPORT,PU,ASO,JAN,ALEXANDER CITY,TALLAPOOSA,AL,THOMAS C RUSSELL FLD,PU,-85.960000,32.910000,686,ATLANTA,2,SW,,,NGY,N,N,N,Y,N,N
615,AIV,00119.*A,AIRPORT,PU,ASO,JAN,ALICEVILLE,PICKENS,AL,GEORGE DOWNER,PU,-88.190000,33.100000,150,MEMPHIS,2,SW,,,N,,,,,N,N
616,79J,00124.*A,AIRPORT,PU,ASO,JAN,ANDALUSIA/OPP,COVINGTON,AL,ANDALUSIA-OPP,PU,-86.390000,31.300000,309,NEW ORLEANS,4,E,,,NGY,N,N,N,Y,Y,N
617,ANB,00128.*A,AIRPORT,PU,ASO,JAN,ANNISTON,CALHOUN,AL,ANNISTON METROPOLITAN,PU,-85.850000,33.580000,612,ATLANTA,5,SW,,AS 05/1973,NGY,N,N,N,Y,N,N
618,AL42,00128.01*H,HELIPORT,PR,ASO,JAN,ANNISTON,CALHOUN,AL,REGIONAL MEDICAL CENTER,PR,-85.820000,33.650000,844,ATLANTA,0,N,05/1991,,,,,,,N,N
619,1M3,00133.5*A,AIRPORT,PU,ASO,JAN,ARDMORE,LIMESTONE,AL,ARDMORE,PR,-86.880000,34.970000,920,ATLANTA,2,SW,,,,,,,,N,N
620,4J9,00134.81*A,AIRPORT,PR,ASO,JAN,ASHFORD,HOUSTON,AL,LUCKY FIELD,PR,-85.240000,31.120000,225,NEW ORLEANS,3,S,,,,,,,,N,N
621,26A,00135.*A,AIRPORT,PU,ASO,JAN,ASHLAND/LINEVILLE,CLAY,AL,ASHLAND/LINEVILLE,PU,-85.800000,33.280000,1065,ATLANTA,2,NE,,,N,N,N,N,N,N,N
622,0AL2,00135.01*H,HELIPORT,PR,ASO,JAN,ASHLAND,CLAY,AL,CLAY COUNTY HOSPITAL,PU,-85.830000,33.270000,1040,ATLANTA,1,E,03/1993,,,,,,,N,N
623,AL60,00137.*A,AIRPORT,PR,ASO,JAN,ASHVILLE,ST CLAIR,AL,DUGGER'S FIELD,PR,-86.210000,33.830000,560,ATLANTA,4,SE,03/1986,,,,,,,N,N
624,0R1,00140.1*A,AIRPORT,PU,ASO,JAN,ATMORE,ESCAMBIA,AL,ATMORE MUNI,PU,-87.440000,31.010000,287,NEW ORLEANS,3,E,,,N,N,N,N,N,N,N
625,AUO,00146.*A,AIRPORT,PU,ASO,JAN,AUBURN,LEE,AL,AUBURN-OPELIKA ROBERT G. PITTS,PU,-85.430000,32.610000,776,ATLANTA,2,E,,,NGY3,N,N,N,Y,N,N
626,AL47,00150.*H,HELIPORT,PR,ASO,JAN,AXIS,MOBILE,AL,LEMOYNE,PR,-88.020000,30.970000,40,NEW ORLEANS,2,N,04/1993,,,,,,,N,N
627,1R8,00155.*A,AIRPORT,PU,ASO,JAN,BAY MINETTE,BALDWIN,AL,BAY MINETTE MUNI,PU,-87.810000,30.870000,248,NEW ORLEANS,3,SW,,,NGY,N,N,N,Y,N,N
628,AL99,00155.01*H,HELIPORT,PR,ASO,JAN,BAY MINETTE,BALDWIN,AL,BLAST OFF,PR,-87.770000,30.830000,241,NEW ORLEANS,1,S,03/1993,,,,,,,N,N
629,5R7,00155.31*A,AIRPORT,PU,ASO,JAN,BAYOU LA BATRE,MOBILE,AL,ROY E. RAY,PR,-88.210000,30.450000,80,NEW ORLEANS,3,NE,,,,N,N,N,N,N,N
630,2AL4,00155.32*H,HELIPORT,PR,ASO,JAN,BAYOU LABATRE,MOBILE,AL,PETROLEUM HELICOPTERS INC,PR,-88.170000,30.430000,34,NEW ORLEANS,4,SW,01/1994,,,,,,,N,N
631,EKY,00157.1*A,AIRPORT,PU,ASO,JAN,BESSEMER,JEFFERSON,AL,BESSEMER,PU,-86.920000,33.310000,700,ATLANTA,3,SE,,,NGY,N,N,N,Y,N,N
632,AL19,00157.11*H,HELIPORT,PR,ASO,JAN,BESSEMER,JEFFERSON,AL,BESSEMER CARRAWAY,PR,-86.990000,33.370000,670,ATLANTA,0,N,11/1990,,,,,,,N,N
633,BHM,00164.*A,AIRPORT,PU,ASO,JAN,BIRMINGHAM,JEFFERSON,AL,BIRMINGHAM INTL,PU,-86.750000,33.560000,644,ATLANTA,4,NE,,CS 05/1973,NGPY,N,Y,Y,Y,Y,Y
634,AL85,00164.02*H,HELIPORT,PR,ASO,JAN,BIRMINGHAM,JEFFERSON,AL,TOWERS,PR,-86.320000,33.470000,1020,ATLANTA,6,SW,02/1990,,,,,,,N,N
635,AL50,00164.05*H,HELIPORT,PR,ASO,JAN,BIRMINGHAM,JEFFERSON,AL,BAPTIST MEDICAL CENTER-PRINCETON,PR,-86.840000,33.490000,557,ATLANTA,0,SW,09/1984,,,,,,,N,N
636,AL49,00164.06*H,HELIPORT,PR,ASO,JAN,BIRMINGHAM,JEFFERSON,AL,CARRAWAY MEDICAL CENTER,PR,-86.810000,33.530000,672,ATLANTA,0,N,09/1984,,,,,,,N,N
637,AL91,00164.07*H,HELIPORT,PR,ASO,JAN,BIRMINGHAM,JEFFERSON,AL,THE CHILDREN'S HOSPITAL,PR,-86.800000,33.500000,698,ATLANTA,0,N,08/1991,,,,,,,N,N
638,AL21,00164.08*H,HELIPORT,PR,ASO,JAN,BIRMINGHAM,JEFFERSON,AL,LAKESIDE,PR,-86.670000,33.510000,645,ATLANTA,1,NE,,,,,,,,N,N
639,AL23,00164.09*H,HELIPORT,PR,ASO,JAN,BIRMINGHAM,JEFFERSON,AL,DRUMMOND COAL COMPANY,PR,-86.750000,33.550000,645,ATLANTA,0,N,,,,,,,,N,N
640,AL38,00164.11*H,HELIPORT,PR,ASO,JAN,BIRMINGHAM,JEFFERSON,AL,UNIVERSITY OF ALABAMA HOSPITAL,PR,-86.800000,33.500000,670,ATLANTA,0,N,04/1982,,,,,,,N,N
641,0AL8,00164.12*H,HELIPORT,PR,ASO,JAN,BIRMINGHAM,JEFFERSON,AL,BROOKWOOD MEDICAL CENTER,PR,-86.770000,33.460000,763,ATLANTA,0,N,03/1993,,,,,,,N,N
642,AL45,00164.16*H,HELIPORT,PR,ASO,JAN,BIRMINGHAM,JEFFERSON,AL,BAPTIST MEDICAL CENTER - MONTCLAIR,PR,-86.740000,33.510000,966,ATLANTA,0,N,07/1984,,,,,,,N,N
643,AL66,00164.18*H,HELIPORT,PR,ASO,JAN,BIRMINGHAM,JEFFERSON,AL,ALABAMA POWER HEADQUARTERS,PR,-86.810000,33.510000,676,ATLANTA,0,N,12/1986,,,,,,,N,N
644,AL65,00164.19*H,HELIPORT,PR,ASO,JAN,BIRMINGHAM,JEFFERSON,AL,MEDICAL CENTER EAST,PR,-86.660000,33.590000,1070,ATLANTA,10,E,12/1986,,,,,,,N,N
645,4AL0,00164.2*H,HELIPORT,PR,ASO,JAN,BIRMINGHAM,JEFFERSON,AL,WBRC-TV,PR,-86.790000,33.480000,1000,ATLANTA,5,S,02/1999,,,,,,,N,N
646,AL40,00164.9*A,AIRPORT,PR,ASO,JAN,BIRMINGHAM,JEFFERSON,AL,BONHAM,PR,-86.980000,33.540000,600,ATLANTA,6,W,11/1982,,,,,,,N,N
647,AL29,00170.*A,AIRPORT,PR,ASO,JAN,BLOUNTSVILLE,CULLMAN,AL,NEW HORIZON,PR,-86.630000,34.120000,750,ATLANTA,3,NW,,,,,,,,N,N
648,1AL0,00174.*H,HELIPORT,PR,ASO,JAN,BOAZ,MARSHALL,AL,BOAZ-ALBERTVILLE MEDICAL CENTER,PR,-86.160000,34.220000,1000,ATLANTA,1,N,03/1993,,,,,,,N,N
649,3AL6,00180.*A,AIRPORT,PR,ASO,JAN,BRANCHVILLE,ST CLAIR,AL,TOWN & COUNTRY AIRPARK,PR,-86.410000,33.490000,730,ATLANTA,1,E,02/1999,,,,,,,N,N
650,12J,00186.*A,AIRPORT,PU,ASO,JAN,BREWTON,ESCAMBIA,AL,BREWTON MUNI,PU,-87.060000,31.050000,96,NEW ORLEANS,3,S,,,NGY3,N,N,Y,Y,N,N
651,0AL6,00186.01*H,HELIPORT,PR,ASO,JAN,BREWTON,ESCAMBIA,AL,D.W. MCMILLIAN MEMORIAL HOSPITAL,PU,-87.070000,31.120000,155,NEW ORLEANS,0,S,03/1993,,,,,,,N,N
652,60A,00196.*A,AIRPORT,PU,ASO,JAN,BRUNDIDGE,PIKE,AL,BRUNDIDGE MUNI,PU,-85.800000,31.730000,476,NEW ORLEANS,1,NE,,,,N,N,N,N,N,N
653,09A,00199.1*A,AIRPORT,PU,ASO,JAN,BUTLER,CHOCTAW,AL,BUTLER-CHOCTAW COUNTY,PU,-88.120000,32.110000,134,MEMPHIS,5,NE,,,N,N,N,N,N,N,N
654,61A,00207.1*A,AIRPORT,PU,ASO,JAN,CAMDEN,WILCOX,AL,CAMDEN MUNI,PU,-87.330000,31.970000,143,NEW ORLEANS,3,SW,,,N,N,N,N,N,N,N
655,C22,00218.1*A,AIRPORT,PU,ASO,JAN,CENTRE,CHEROKEE,AL,CENTRE MUNI,PU,-85.630000,34.150000,619,ATLANTA,3,E,,,N,N,N,N,N,N,N
656,AL27,00218.11*A,AIRPORT,PR,ASO,JAN,CENTRE,CHEROKEE,AL,HEADQUARTERS,PR,-85.560000,34.100000,610,ATLANTA,7,SE,08/1991,,,,,,,N,N
657,0A8,00218.7*A,AIRPORT,PU,ASO,JAN,CENTREVILLE,BIBB,AL,BIBB COUNTY,PU,-87.080000,32.930000,251,ATLANTA,3,E,,,N,N,N,N,N,N,N
658,4A3,00225.*A,AIRPORT,PR,ASO,JAN,CHAPMAN,BUTLER,AL,MC GOWIN FIELD,PR,-86.680000,31.680000,400,NEW ORLEANS,2,E,,,,,,,,N,N
659,5R1,00226.5*A,AIRPORT,PU,ASO,JAN,CHATOM,WASHINGTON,AL,ROY WILCOX,PU,-88.190000,31.450000,165,NEW ORLEANS,3,E,,,,N,N,N,N,N,N
660,AL01,00231.*A,AIRPORT,PR,ASO,JAN,CLAIBORNE,MONROE,AL,BEDSOLE FARM,PR,-87.530000,31.550000,180,NEW ORLEANS,3,NW,,,,,,,,N,N
661,02A,00233.*A,AIRPORT,PU,ASO,JAN,CLANTON,CHILTON,AL,GRAGG-WADE FIELD,PU,-86.610000,32.850000,586,ATLANTA,1,E,,,N,N,N,N,N,N,N
662,65A,00233.1*A,AIRPORT,PR,ASO,JAN,CLANTON,CHILTON,AL,WARE ISLAND,PR,-86.510000,32.940000,344,ATLANTA,9,NE,,,,N,N,N,N,N,N
663,11A,00234.*A,AIRPORT,PU,ASO,JAN,CLAYTON,BARBOUR,AL,CLAYTON MUNI,PU,-85.480000,31.880000,435,NEW ORLEANS,2,W,,,N,,,N,,N,N
664,1AL2,00241.*A,AIRPORT,PR,ASO,JAN,COLUMBIANA,SHELBY,AL,TRI-L ACRES,PR,-86.590000,33.240000,580,ATLANTA,4,N,03/1993,,,,,,,N,N
665,AL02,00244.5*A,AIRPORT,PR,ASO,JAN,COTTONDALE,TUSCALOOSA,AL,RAINEY FIELD,PR,-87.440000,33.150000,300,ATLANTA,3,SE,,,,,,,,N,N
666,AL13,00244.7*H,HELIPORT,PR,ASO,JAN,COTTONTON,RUSSELL,AL,MEAD COATED BOARD,PR,-85.020000,32.170000,95,ATLANTA,1,N,11/1988,,,,,,,N,N
667,9A4,00245.*A,AIRPORT,PU,ASO,JAN,COURTLAND,LAWRENCE,AL,LAWRENCE COUNTY,PU,-87.340000,34.650000,588,ATLANTA,2,NE,12/1986,,NGY,,,,,N,N
668,AL51,00245.6*A,AIRPORT,PR,ASO,JAN,CRAWFORD,RUSSELL,AL,FLYING C'S PLANTATION,PR,-85.290000,32.410000,395,ATLANTA,6,SW,10/1994,,,,,,,N,N
669,15A,00246.*A,AIRPORT,PU,ASO,JAN,CREOLA,MOBILE,AL,MARK REYNOLDS/NORTH MOBILE COUNTY,PR,-87.980000,30.910000,60,NEW ORLEANS,3,NE,09/1984,,,,,,,N,N
670,3A1,00248.3*A,AIRPORT,PU,ASO,JAN,CULLMAN,CULLMAN,AL,FOLSOM FIELD,PU,-86.850000,34.260000,963,ATLANTA,5,N,,,NGY,N,N,N,Y,N,N
671,AL44,00248.31*H,HELIPORT,PR,ASO,JAN,CULLMAN,CULLMAN,AL,CULLMAN MEDICAL CENTER,PU,-86.840000,34.170000,789,ATLANTA,0,NE,08/1983,,,,,,,N,N
672,3AL9,00248.32*H,HELIPORT,PR,ASO,JAN,CULLMAN,CULLMAN,AL,CULLMAN RGNL MEDICAL CENTER,PR,-86.800000,34.200000,826,ATLANTA,0,N,02/1999,,,,,,,N,N
673,AL61,00250.*A,AIRPORT,PR,ASO,JAN,DAPHNE,BALDWIN,AL,BELFOREST,PR,-87.850000,30.610000,140,NEW ORLEANS,3,W,03/1986,,,,,,,N,N
674,4R9,00250.1*A,AIRPORT,PU,ASO,JAN,DAUPHIN ISLAND,MOBILE,AL,DAUPHIN ISLAND,PU,-88.120000,30.260000,5,NEW ORLEANS,0,NW,,,NGY,N,N,N,Y,N,N
675,2AL0,00250.7*A,AIRPORT,PR,ASO,JAN,DAYTON,MARENGO,AL,PAULLING PLACE AIRSTRIP,PR,-87.540000,32.350000,275,ATLANTA,5,E,07/1993,,,,,,,N,N
676,DCU,00251.*A,AIRPORT,PU,ASO,JAN,DECATUR,LIMESTONE,AL,PRYOR FIELD RGNL,PU,-86.940000,34.650000,592,ATLANTA,3,NE,,,NGPY,N,N,N,Y,N,N
677,1AL1,00251.02*H,HELIPORT,PR,ASO,JAN,DECATUR,MORGAN,AL,DECATUR GENERAL HOSPITAL,PU,-86.970000,34.590000,588,ATLANTA,0,N,03/1993,,,,,,,N,N
678,7A2,00254.*A,AIRPORT,PU,ASO,JAN,DEMOPOLIS,MARENGO,AL,DEMOPOLIS MUNI,PU,-87.950000,32.460000,112,ATLANTA,6,SW,,,NGY3,N,N,N,Y,N,N
679,AL14,00254.01*H,HELIPORT,PR,ASO,JAN,DEMOPOLIS,MARENGO,AL,BRYAN W. WHITFIELD MEMORIAL HOSPITAL,PU,-87.860000,32.500000,150,ATLANTA,0,N,07/1990,,,,,,,N,N
680,AL20,00266.21*H,HELIPORT,PR,ASO,JAN,DOTHAN,HOUSTON,AL,SOUTHEAST ALABAMA MEDICAL CENTER,PU,-85.360000,31.210000,396,NEW ORLEANS,0,N,,,,,,,,N,N
681,AL59,00266.22*H,HELIPORT,PR,ASO,JAN,DOTHAN,HOUSTON,AL,FLOWERS HOSPITAL,PR,-85.450000,31.230000,305,NEW ORLEANS,3,SW,10/1984,,,,,,,N,N
682,DHN,00267.*A,AIRPORT,PU,ASO,JAN,DOTHAN,DALE,AL,DOTHAN RGNL,PU,-85.440000,31.320000,401,NEW ORLEANS,5,NW,,BS 05/1973,NGY3,N,N,Y,Y,Y,Y
683,3M2,00267.2*A,AIRPORT,PU,ASO,JAN,DOUBLE SPRINGS,WINSTON,AL,DOUBLE SPRINGS-WINSTON COUNTY,PU,-87.320000,34.140000,753,ATLANTA,4,E,,,,N,N,N,N,N,N
684,14J,00267.6*A,AIRPORT,PU,ASO,JAN,ELBA,COFFEE,AL,CARL FOLSOM,PU,-86.080000,31.400000,262,NEW ORLEANS,2,W,,,N,N,N,N,Y,N,N
685,7J9,00267.7*A,AIRPORT,PR,ASO,JAN,ELBERTA,BALDWIN,AL,HORAK,PR,-87.540000,30.460000,110,NEW ORLEANS,4,NE,,,,,,,,N,N
686,AL08,00267.81*A,AIRPORT,PR,ASO,JAN,ELBERTA,BALDWIN,AL,PERDIDO WINDS AIRPARK,PR,-87.530000,30.420000,75,NEW ORLEANS,5,W,02/2000,,,,,,,N,N
687,AL04,00267.9*A,AIRPORT,PR,ASO,JAN,ELBERTA,BALDWIN,AL,PLEASANT VIEW FARM,PR,-87.520000,30.460000,105,NEW ORLEANS,5,NE,11/1989,,,,,,,N,N
688,AL55,00269.*A,AIRPORT,PR,ASO,JAN,ELBERTA,BALDWIN,AL,SHIELDS,PR,-87.460000,30.440000,95,NEW ORLEANS,9,E,01/1985,,,,,,,N,N
689,EDN,00287.1*A,AIRPORT,PU,ASO,JAN,ENTERPRISE,COFFEE,AL,ENTERPRISE MUNI,PU,-85.890000,31.290000,364,NEW ORLEANS,3,W,,,NGY,N,N,N,Y,N,N
690,EUF,00290.*A,AIRPORT,PU,ASO,JAN,EUFAULA,BARBOUR,AL,WEEDON FIELD,PU,-85.120000,31.950000,285,NEW ORLEANS,3,N,,,NGY,N,N,N,Y,N,N
691,3A7,00293.*A,AIRPORT,PU,ASO,JAN,EUTAW,GREENE,AL,EUTAW MUNI,PU,-87.860000,32.820000,170,ATLANTA,2,SE,,,,,,,,N,N
692,GZH,00296.*A,AIRPORT,PU,ASO,JAN,EVERGREEN,CONECUH,AL,MIDDLETON FIELD,PU,-87.040000,31.410000,260,NEW ORLEANS,5,W,,,N3,N,N,Y,N,N,N
693,0AL3,00296.01*H,HELIPORT,PR,ASO,JAN,EVERGREEN,CONECUH,AL,HOSPITAL PAD,PR,-86.940000,31.430000,295,NEW ORLEANS,1,NW,03/1993,,,,,,,N,N
694,4R4,00300.3*A,AIRPORT,PU,ASO,JAN,FAIRHOPE,BALDWIN,AL,FAIRHOPE MUNI,PU,-87.870000,30.460000,95,NEW ORLEANS,3,SE,,,NGY,N,N,N,Y,N,N
695,AL78,00300.31*A,AIRPORT,PR,ASO,JAN,FAIRHOPE,BALDWIN,AL,KLUMPP,PR,-87.850000,30.520000,111,NEW ORLEANS,3,E,09/1987,,,,,,,N,N
696,M95,00302.*A,AIRPORT,PU,ASO,JAN,FAYETTE,FAYETTE,AL,RICHARD ARTHUR FIELD,PU,-87.810000,33.710000,364,ATLANTA,3,NE,,,N1,N,N,N,Y,N,N
697,3AL0,00302.01*H,HELIPORT,PR,ASO,JAN,FAYETTE,FAYETTE,AL,FAYETTE COUNTY HOSPITAL,PR,-87.820000,33.700000,370,NEW ORLEANS,1,N,07/1995,,,,,,,N,N
698,AL00,00302.02*A,AIRPORT,PR,ASO,JAN,FAYETTE,FAYETTE,AL,CHARLIE WILKES,PR,-87.780000,33.740000,340,ATLANTA,5,NE,02/1999,,,,,,,N,N
699,4AL7,00305.*A,AIRPORT,PR,ASO,JAN,FLAT ROCK,JACKSON,AL,LEON'S LANDING,PR,-85.680000,34.740000,1430,ATLANTA,4,SE,11/2000,,,,,,,N,N
700,0AL5,00306.*A,AIRPORT,PR,ASO,JAN,FLOMATON,ESCAMBIA,AL,FLOMATON,PR,-87.250000,31.030000,247,NEW ORLEANS,2,NE,03/1993,,,,,,,N,N
701,0J4,00308.5*A,AIRPORT,PU,ASO,JAN,FLORALA,COVINGTON,AL,FLORALA MUNI,PU,-86.310000,31.040000,314,NEW ORLEANS,3,NE,,,N,,,N,N,N,N
702,AL46,00310.*C,SEAPLANE BASE,PR,ASO,JAN,FLORENCE,LAUDERDALE,AL,SHOALS CREEK,PR,-87.580000,34.900000,510,ATLANTA,8,SW,10/1984,,,,,,,N,N
703,AL22,00310.01*H,HELIPORT,PR,ASO,JAN,FLORENCE,LAUDERDALE,AL,ELIZA COFFEE MEMORIAL HOSPITAL,PR,-87.680000,34.790000,581,ATLANTA,1,W,11/1989,,,,,,,N,N
704,0AL9,00310.1*A,AIRPORT,PR,ASO,JAN,FLORENCE,LAUDERDALE,AL,WILSON CREEK,PR,-87.630000,34.850000,590,ATLANTA,1,NE,03/1993,,,,,,,N,N
705,0AL1,00323.*A,AIRPORT,PR,ASO,JAN,FOLEY,BALDWIN,AL,RESORT,PR,-87.650000,30.440000,97,NEW ORLEANS,4,NE,03/1993,,,,,,,N,N
706,8J0,00323.21*A,AIRPORT,PR,ASO,JAN,FOLEY,BALDWIN,AL,STYRON,PR,-87.720000,30.400000,120,NEW ORLEANS,3,W,,,,,,,,N,N
707,4AL2,00323.22*A,AIRPORT,PR,ASO,JAN,FOLEY,BALDWIN,AL,IRWIN FARMS,PR,-87.720000,30.370000,25,NEW ORLEANS,3,SW,04/1999,,,,,,,N,N
708,5R4,00323.3*A,AIRPORT,PU,ASO,JAN,FOLEY,BALDWIN,AL,FOLEY MUNI,PU,-87.700000,30.420000,74,NEW ORLEANS,3,NW,,,NGY,N,N,N,Y,N,N
709,NBJ,00323.4*A,AIRPORT,PR,ASO,JAN,FOLEY,BALDWIN,AL,BARIN NOLF,MN,-87.630000,30.380000,54,NEW ORLEANS,0,,,,,,,,,N,N
710,67A,00326.*A,AIRPORT,PU,ASO,JAN,FORT DEPOSIT,LOWNDES,AL,FORT DEPOSIT-LOWNDES COUNTY,PU,-86.590000,31.970000,490,NEW ORLEANS,1,SW,,,,,,,,N,N
711,2AL5,00328.*A,AIRPORT,PR,ASO,JAN,FORT PAYNE,DE KALB,AL,FLYING J RANCH,PR,-85.660000,34.390000,1430,ATLANTA,5,SE,,,,,,,,N,N
712,4A9,00328.1*A,AIRPORT,PU,ASO,JAN,FORT PAYNE,DE KALB,AL,ISBELL FIELD,PU,-85.720000,34.470000,877,ATLANTA,2,N,,,NGY,N,N,N,N,N,N
713,0AL4,00328.11*H,HELIPORT,PR,ASO,JAN,FORT PAYNE,DE KALB,AL,B.M.C. - DE KALB,PR,-85.750000,34.440000,870,ATLANTA,2,SW,03/1993,,,,,,,N,N
714,OZR,00329.*A,AIRPORT,PR,ASO,JAN,FORT RUCKER/OZARK,DALE,AL,CAIRNS AAF,MR,-85.700000,31.270000,298,NEW ORLEANS,0,,,,,N,N,,Y,Y,N
715,HEY,00329.01*H,HELIPORT,PR,ASO,JAN,FORT RUCKER OZARK,DALE,AL,HANCHEY AHP,MR,-85.660000,31.350000,317,NEW ORLEANS,4,SE,,,,N,N,,Y,Y,N
716,4FL5,00329.02*H,HELIPORT,PR,ASO,JAN,FORT RUCKER/OZARK,DALE,AL,HUNT AHP,MR,-85.580000,31.380000,250,NEW ORLEANS,4,SE,,,,,,,Y,N,N
717,LOR,00329.03*H,HELIPORT,PR,ASO,JAN,FORT RUCKER OZARK,DALE,AL,LOWE AHP,MR,-85.740000,31.350000,244,NEW ORLEANS,0,,,,,,,,Y,Y,N
718,AL03,00329.05*H,HELIPORT,PR,ASO,JAN,FORT RUCKER/OZARK,DALE,AL,LOUISVILLE AHP,MR,-85.640000,31.810000,385,NEW ORLEANS,24,NE,,,,,,,Y,N,N
719,FHK,00329.06*H,HELIPORT,PR,ASO,JAN,FORT RUCKER/OZARK,DALE,AL,KNOX AHP,MR,-85.660000,31.310000,225,NEW ORLEANS,5,SE,,,,,,,,N,N
720,SXS,00329.07*H,HELIPORT,PR,ASO,JAN,FORT RUCKER,DALE,AL,SHELL AHP,MR,-85.840000,31.360000,400,NEW ORLEANS,0,N,,,,,,,Y,N,N
721,GAD,00333.*A,AIRPORT,PU,ASO,JAN,GADSDEN,ETOWAH,AL,GADSDEN MUNI,PU,-86.080000,33.970000,569,ATLANTA,4,SW,,,NGPRY3,N,N,N,Y,N,N
722,0AL7,00333.01*H,HELIPORT,PR,ASO,JAN,GADSDEN,ETOWAH,AL,GADSDEN REGL MEDICAL CENTER,PR,-85.960000,34.000000,621,ATLANTA,2,E,03/1993,,,,,,,N,N
723,AL18,00336.5*A,AIRPORT,PR,ASO,JAN,GARDENDALE,JEFFERSON,AL,PARKER FIELD,PR,-86.860000,33.670000,590,ATLANTA,3,NW,,,,,,,,N,N
724,AL43,00341.1*A,AIRPORT,PR,ASO,JAN,GEIGER,SUMTER,AL,HENLEY RANCH,PR,-88.330000,32.900000,200,MEMPHIS,4,NW,06/1983,,,,,,,N,N
725,33J,00344.1*A,AIRPORT,PU,ASO,JAN,GENEVA,GENEVA,AL,GENEVA MUNI,PU,-85.880000,31.050000,101,NEW ORLEANS,2,N,,,N,N,N,N,Y,N,N
726,8J9,00344.13*H,HELIPORT,PR,ASO,JAN,GENEVA,GENEVA,AL,WIREGRASS HOSPITAL,PR,-85.890000,31.040000,160,NEW ORLEANS,3,NW,,,,,,,,N,N
727,7A0,00350.1*A,AIRPORT,PU,ASO,JAN,GREENSBORO,HALE,AL,GREENSBORO MUNI,PU,-87.660000,32.680000,180,ATLANTA,3,SW,,,N,N,N,N,N,N,N
728,PRN,00353.1*A,AIRPORT,PU,ASO,JAN,GREENVILLE,BUTLER,AL,GREENVILLE MUNI,PU,-86.610000,31.840000,449,NEW ORLEANS,2,NE,,,NGY,N,N,N,Y,N,N
729,3A0,00358.*A,AIRPORT,PU,ASO,JAN,GROVE HILL,CLARKE,AL,GROVE HILL MUNI,PU,-87.760000,31.680000,478,NEW ORLEANS,2,SE,,,1,N,N,N,N,N,N
730,JKA,00359.7*A,AIRPORT,PU,ASO,JAN,GULF SHORES,BALDWIN,AL,JACK EDWARDS,PU,-87.670000,30.280000,16,NEW ORLEANS,2,N,,,NGPY,,,,,N,N
731,8A1,00360.*A,AIRPORT,PU,ASO,JAN,GUNTERSVILLE,MARSHALL,AL,GUNTERSVILLE MUNI,PU,-86.270000,34.390000,613,ATLANTA,3,NE,,,NS1,N,N,N,Y,N,N
732,AL10,00361.02*A,AIRPORT,PR,ASO,JAN,GURLEY,MADISON,AL,FRERICHS,PR,-86.410000,34.650000,650,ATLANTA,4,SE,08/1988,,,,,,,N,N
733,1M4,00363.*A,AIRPORT,PU,ASO,JAN,HALEYVILLE,WINSTON,AL,POSEY FIELD,PU,-87.600000,34.280000,930,ATLANTA,3,NE,,,NGY,N,N,N,Y,N,N
734,HAB,00366.1*A,AIRPORT,PU,ASO,JAN,HAMILTON,MARION,AL,MARION COUNTY-RANKIN FITE,PU,-87.990000,34.110000,442,ATLANTA,1,S,,,NGY,N,N,N,Y,N,N
735,2AL7,00368.2*A,AIRPORT,PR,ASO,JAN,HANCEVILLE,CULLMAN,AL,MOUNT AERO LAKE FARM,PR,-86.720000,34.060000,625,ATLANTA,2,E,03/1995,,,,,,,N,N
